id,lat,lon,name,shop,city,state
4603174789,29.1877471,73.2047743,रवि मोपेड व मोटरसाइकिल वर्कशॉप,bicycle,16 A,Rajasthan
3816643506,9.6622625,77.1594427,Auto Garage and Tyre Workshop,tyres,6th Mile,Kerala
3816643553,9.6566534,77.1596069,Workshop,tyres,6th Mile,Kerala
3158193078,15.2759313,76.3877482,Aadi Bajaj,motorcycle,88 Mudlapura,Karnataka
3191795268,15.2733326,76.390892,Bata Store,shoes,88 Mudlapura,Karnataka
3193991092,15.2747538,76.3822063,City Tours & Travels,travel_agency,88 Mudlapura,Karnataka
3158194096,15.2786226,76.3885269,Computer Needs,convenience,88 Mudlapura,Karnataka
3194243977,15.27633,76.3895264,Ganesh Travels & Tours,travel_agency,88 Mudlapura,Karnataka
3156398389,15.2747154,76.3820921,Linen Club The Ramp,convenience,88 Mudlapura,Karnataka
2724710588,15.2751407,76.3828588,More Market,supermarket,88 Mudlapura,Karnataka
3158191652,15.2756758,76.3872757,Personal Loan Hospet,pawnbroker,88 Mudlapura,Karnataka
3192761714,15.2751942,76.3855286,SRB Empire,travel_agency,88 Mudlapura,Karnataka
3158194097,15.2751484,76.3852463,Universell Mobile store,mobile_phone,88 Mudlapura,Karnataka
3192730569,15.2752638,76.3900833,VRL Travels,travel_agency,88 Mudlapura,Karnataka
3216970889,15.2755418,76.386855,VRL Travels,travel_agency,88 Mudlapura,Karnataka
3157767621,15.2713231,76.3881404,Vegetable market,greengrocer,88 Mudlapura,Karnataka
3156501598,15.2751088,76.3881404,Vodafone Mini Store,mobile_phone,88 Mudlapura,Karnataka
3210762897,15.2752019,76.38416,Vodafone Shop,mobile_phone,88 Mudlapura,Karnataka
3158194376,15.2752705,76.3851852,lamode,clothes,88 Mudlapura,Karnataka
2744933568,16.5893928,82.0087445,Siva Cooling Home,bakery,A Vemavarappadu,Andhra Pradesh
2802785260,16.5854067,82.0072595,TVS Show Room,motorcycle,A Vemavarappadu,Andhra Pradesh
7121580072,10.5150381,76.2940662,Neethi Supermarket,supermarket,Achankunnu,Kerala
1664497264,11.4077731,76.7066263,More,supermarket,Adasolai,Tamil Nadu
3872296880,11.4102984,76.706631,Prabha Sweets,confectionery,Adasolai,Tamil Nadu
1166263122,11.4098464,76.7058117,Rayan Ooty Bakery,bakery,Adasolai,Tamil Nadu
577048378,11.412017,76.7080084,TASMAC,alcohol,Adasolai,Tamil Nadu
4989011626,11.4111004,76.7100019,Tata,car_repair,Adasolai,Tamil Nadu
369474575,11.4096269,76.7062434,Vibes,electronics,Adasolai,Tamil Nadu
6837577432,16.50968,77.9324884,Sri Venkataramana Cloth Store,clothes,Addakal,Telangana
6847914713,19.4289048,78.4494815,Shabari Kirana,department_store,Adegaon K,Telangana
2712517440,19.6789934,78.5288824,Adilabad Cotton Market,convenience,Adilabad,Telangana
6840090634,19.6642481,78.5321669,Farhan Kirana,department_store,Adilabad,Telangana
6837577364,19.679091,78.5205018,Junaid Feroz XEROX Center,stationery,Adilabad,Telangana
6847212701,19.670754,78.5341749,Markandeya Electronics Repair Shop,electronics,Adilabad,Telangana
6847914822,19.6792329,78.5209556,Mohan hair salon,beauty,Adilabad,Telangana
6847212727,19.6707238,78.5343059,Raymond,clothes,Adilabad,Telangana
6853050120,19.6717381,78.5331393,Ruchi Bangalore Bakery,bakery,Adilabad,Telangana
6840090902,19.6691904,78.5322664,Sony batteries,electronics,Adilabad,Telangana
6853050121,19.672114,78.532809,YOGESH MEN'S AND KID'S WEAR,clothes,Adilabad,Telangana
7005530084,8.3661613,77.0131632,Colours bakery and fancy store,bakery,Adimalathura,Kerala
7003610327,8.3642052,77.0137645,Level 10,nutrition_supplements,Adimalathura,Kerala
7003610328,8.3642667,77.0137731,Mydhili collections,clothes,Adimalathura,Kerala
4618120293,10.0784799,76.9623161,Viripara Waterfall Entry,ticket,Adimali,Kerala
7234523702,10.0264743,76.6580591,Akathutt Jewellery.,jewelry,Adivad,Kerala
7234523700,10.0275232,76.6589941,Habeebi,clothes,Adivad,Kerala
7234549147,10.0277719,76.6591155,KPSm,supermarket,Adivad,Kerala
7234523694,10.0281104,76.659363,Mahin,tyres,Adivad,Kerala
7234523705,10.0259417,76.6573441,Star Bakery,bakery,Adivad,Kerala
7234521275,10.0270417,76.6587874,Supplyco,supermarket,Adivad,Kerala
3540727054,10.7393356,79.5060043,Family supermarket,supermarket,Agara pothakudi,Tamil Nadu
3551675326,10.7412174,79.504772,Fun food,bakery,Agara pothakudi,Tamil Nadu
3540727056,10.7390742,79.5063131,Green apple women's shopping,clothes,Agara pothakudi,Tamil Nadu
3540727057,10.7391926,79.5060804,I cube system,electronics,Agara pothakudi,Tamil Nadu
3540714418,10.7393175,79.5062355,SKM furinture,electronics,Agara pothakudi,Tamil Nadu
3555381606,10.7385389,79.5066764,Zum zum,clothes,Agara pothakudi,Tamil Nadu
3551675325,10.7393028,79.5049757,bismi barbar shop,saloon,Agara pothakudi,Tamil Nadu
5259058322,12.8854146,80.1521473,Ration Shop,convenience,Agaram Then,Tamil Nadu
5711428839,23.835999,91.2872207,Sister's,fashion,Agartala,Tripura
4296326903,15.649066,73.762512,Raut Auto Service,car_repair,Agarvada,Goa
4524255726,15.4193141,73.902556,Wonderwood,furniture,Agassaim,Goa
1604519831,10.8665184,72.1945631,Alpha Systems,electronics,Agatti,Lakshadweep
1602091719,10.8650187,72.1955512,D.M. Stores,convenience,Agatti,Lakshadweep
1602135129,10.865398,72.1956321,Levinsoft computer center Agatti,computer,Agatti,Lakshadweep
1604519576,10.8709912,72.1976982,Motorbike servicing painting,bicycle,Agatti,Lakshadweep
1602133270,10.8686181,72.1969885,Sas Agencies,hardware,Agatti,Lakshadweep
1602134071,10.8676212,72.1969795,Zero Travels,supermarket,Agatti,Lakshadweep
2631561059,15.0446462,73.9867945,Bazaz International,jewelry,Agonda,Goa
2630196726,15.0360005,73.990618,Gold Palm Travels,travel_agency,Agonda,Goa
4763213175,15.0462293,73.9860554,Pari liquor and wine,alcohol,Agonda,Goa
679232553,15.0417391,73.9905472,S.K.A. Vegetables & Fruits,greengrocer,Agonda,Goa
2631561111,15.0433165,73.9877474,Sai Kaushik Travel Net,travel_agency,Agonda,Goa
2631561114,15.0463209,73.9859782,Shabirs Shop,jewelry,Agonda,Goa
2631561116,15.0441048,73.9869767,Silver Collection,jewelry,Agonda,Goa
3762148293,27.1801005,78.0048639,Agra Photo Shop,yes,Agra,Uttar Pradesh
5171406550,27.1619928,78.040068,Akbar International,gift,Agra,Uttar Pradesh
3754730845,27.1762591,77.9889456,Amit Garments,supermarket,Agra,Uttar Pradesh
3130760455,27.1917775,77.981353,Anu Book Center,books,Agra,Uttar Pradesh
3079690709,27.2009361,78.0084213,Ashok Cosmos Mall,mall,Agra,Uttar Pradesh
3769974342,27.1981064,77.9983674,BIg Bazar,supermarket,Agra,Uttar Pradesh
2652490814,27.1640512,78.0082308,Bachoomal sons CLOTHES,clothes,Agra,Uttar Pradesh
3762160231,27.1802246,78.0054755,Bala Ji Store,yes,Agra,Uttar Pradesh
3754537830,27.2010838,78.0053823,Baldev sons,supermarket,Agra,Uttar Pradesh
3762145507,27.1800933,78.0054513,Bani Mishthan Bhandar,yes,Agra,Uttar Pradesh
3104175892,27.1762487,78.0084192,Bata,shoes,Agra,Uttar Pradesh
4763211066,27.1678903,78.040615,Beer shop,alcohol,Agra,Uttar Pradesh
3770025424,27.1752624,77.9888301,Bhai Collection,yes,Agra,Uttar Pradesh
3770029054,27.175198,77.9886504,Bharat Collection,yes,Agra,Uttar Pradesh
2652490678,27.1593519,78.0570006,Big Bazaar,department_store,Agra,Uttar Pradesh
7192475985,27.1620684,78.0357918,Big Bazzar,supermarket,Agra,Uttar Pradesh
7192477585,27.2014546,78.0081621,Big Bazzar,supermarket,Agra,Uttar Pradesh
2977223663,27.1992939,77.9986099,"Big Bazzar Delhi Gate, Agra",supermarket,Agra,Uttar Pradesh
3756853856,27.2009481,77.9590562,Big Orange Cafe,supermarket,Agra,Uttar Pradesh
3755382937,27.2064555,78.0033782,Cantabil Showroom,supermarket,Agra,Uttar Pradesh
3776075720,27.2045269,77.9541631,Car Rentals,supermarket,Agra,Uttar Pradesh
6964176885,27.1672333,78.0155636,DESI SHARAB THEKA,alcohol,Agra,Uttar Pradesh
3103854529,27.1897903,77.9802942,Darshan Computer,computer,Agra,Uttar Pradesh
3755389398,27.1985444,78.0022652,Deen Dayal Jewellers,jewelry,Agra,Uttar Pradesh
3754728527,27.1759185,77.9888677,Devi Family Plaza,supermarket,Agra,Uttar Pradesh
3754731316,27.178136,77.9887996,Disha Uniform Centre,supermarket,Agra,Uttar Pradesh
3789950281,27.1997906,77.9618964,Dr. Parth Sarthi Clinic,supermarket,Agra,Uttar Pradesh
3754728526,27.1760301,77.9888918,Gurunanak Cloth Store,supermarket,Agra,Uttar Pradesh
3103381229,27.1997162,78.0080256,Hallmark,yes,Agra,Uttar Pradesh
3103506829,27.1973454,78.0060313,Hari dairy,yes,Agra,Uttar Pradesh
3785773565,27.1618375,78.0379284,IDEA CELLULAR OFFICE,mobile_phone,Agra,Uttar Pradesh
3785784899,27.161733,78.0346094,IDEA SHOP,yes,Agra,Uttar Pradesh
3763415423,27.2014742,77.9698562,JANTA DRYCLEANERS,supermarket,Agra,Uttar Pradesh
3096757320,27.1891755,77.9631193,"Jagdamba Electronics,Bodla",electronics,Agra,Uttar Pradesh
3770041745,27.1770422,78.0026758,Jain's Shop,yes,Agra,Uttar Pradesh
3789950137,27.2009849,77.9582739,Kaila devi chauraha,supermarket,Agra,Uttar Pradesh
3762160236,27.180258,78.0055398,Kesav Journal Store,yes,Agra,Uttar Pradesh
3776093471,27.1581893,78.0345906,Kumar super market,supermarket,Agra,Uttar Pradesh
3762163690,27.1798046,78.005226,Lakshmi Store,yes,Agra,Uttar Pradesh
3756860321,27.2013524,77.9580034,Laxmi palace,supermarket,Agra,Uttar Pradesh
2652518597,27.1597309,78.0110741,Levi's,clothes,Agra,Uttar Pradesh
3882988271,27.2008238,78.0032811,Levi's,clothes,Agra,Uttar Pradesh
3754728525,27.1763902,77.9889326,Lucky Saree Centre,supermarket,Agra,Uttar Pradesh
3103347884,27.1891844,77.9612429,Mahash stationery,stationery,Agra,Uttar Pradesh
3770086543,27.188387,77.9951063,Milk Dairy,yes,Agra,Uttar Pradesh
3755383378,27.2065175,78.0033728,Mufti Showroom,supermarket,Agra,Uttar Pradesh
3103969905,27.1909363,77.9734988,My father shop,yes,Agra,Uttar Pradesh
3754728147,27.1762907,77.9888013,Nandini Saree Centre,supermarket,Agra,Uttar Pradesh
3095389228,27.1897922,77.962801,New Shiva Tailor,tailor,Agra,Uttar Pradesh
3755389862,27.1983022,78.002406,O.P. Jewellers,jewelry,Agra,Uttar Pradesh
3756861225,27.2003896,77.9590795,Om Gift Corner,supermarket,Agra,Uttar Pradesh
5279311309,27.1710184,78.0444115,P.K. Marble Handicraft,craft,Agra,Uttar Pradesh
3785771741,27.1620171,78.037163,PANCHI PETHA,yes,Agra,Uttar Pradesh
3770090959,27.1878311,77.9951143,Paan's Shop,yes,Agra,Uttar Pradesh
3763563292,27.1892352,78.0010911,Peter England,clothes,Agra,Uttar Pradesh
3078431796,27.2148075,78.0225966,"Power Feeder & Billing Centre, Kamla Nagar",power_billing,Agra,Uttar Pradesh
2652518599,27.1597548,78.0110097,Provogue,clothes,Agra,Uttar Pradesh
3754913587,27.1639807,77.982005,Punjab Collection,supermarket,Agra,Uttar Pradesh
3095389218,27.1891099,77.9629727,RAJPUT COLOR LAB,photo,Agra,Uttar Pradesh
1863456763,27.2244358,77.9471971,RAJU MARKET,supermarket,Agra,Uttar Pradesh
3785783623,27.1616394,78.0345135,RELIENCE DX Mini Store,yes,Agra,Uttar Pradesh
3762163203,27.1792988,78.0055238,Raaj Sarziko,yes,Agra,Uttar Pradesh
3096767581,27.1889323,77.9619599,Ramveer Statinory,stationery,Agra,Uttar Pradesh
2652518598,27.1596763,78.0099109,Reebok,clothes,Agra,Uttar Pradesh
2653408976,27.1592102,78.0110085,Royal Book Depot,books,Agra,Uttar Pradesh
3764888195,27.2011268,77.9635439,SECTOR 07: FIELD,supermarket,Agra,Uttar Pradesh
5642006122,27.1662396,78.0154181,SHYAM TRAVEL AGENCY,travel_agency,Agra,Uttar Pradesh
4008696231,27.160557,78.0114561,Saad local Baazar,confectionery,Agra,Uttar Pradesh
2652490817,27.1592838,78.0105215,Samsung,electronics,Agra,Uttar Pradesh
3788596057,27.1965051,78.0007779,Shiva xerox shop,yes,Agra,Uttar Pradesh
3754684995,27.1894744,77.998784,Shri Nagaji Garments,supermarket,Agra,Uttar Pradesh
3095079170,27.1880413,78.011179,Sindhi Market,supermarket,Agra,Uttar Pradesh
3770058921,27.176355,78.0028806,Sonu's Shop,yes,Agra,Uttar Pradesh
3780525539,27.2118217,78.0050554,T-MART,supermarket,Agra,Uttar Pradesh
3755389993,27.1983404,78.0023899,Tanishq,jewelry,Agra,Uttar Pradesh
3882988270,27.2015967,78.0035815,Tanishq,jewelry,Agra,Uttar Pradesh
5931059788,27.1681885,78.0441078,Telephone antenna,radiotechnics,Agra,Uttar Pradesh
3105488082,27.2095644,78.0178778,The Raymond Shop,yes,Agra,Uttar Pradesh
3764890096,27.2070477,77.9707241,VISHAWAKARMA PLAZA,supermarket,Agra,Uttar Pradesh
3103505629,27.2005416,78.008223,Vatika,yes,Agra,Uttar Pradesh
3762149379,27.1610686,78.0339546,Vodafone,mobile_phone,Agra,Uttar Pradesh
3762150141,27.1619924,78.0389676,Vodafone Idea,mobile_phone,Agra,Uttar Pradesh
4580988395,27.1669443,78.0094357,abdul puncturewala,car_repair,Agra,Uttar Pradesh
3127186035,27.1762092,77.9892765,ber shop,alcohol,Agra,Uttar Pradesh
3090218871,27.1832287,77.9797016,easyday,supermarket,Agra,Uttar Pradesh
3787080199,27.1830947,77.9795953,easyday,supermarket,Agra,Uttar Pradesh
3769963585,27.1898376,78.0128262,farhan hairdresser,hairdresser,Agra,Uttar Pradesh
5372689721,27.1788697,78.0057959,footcare,cosmetics,Agra,Uttar Pradesh
3127186039,27.1760921,77.98898,g mb seewt shop,confectionery,Agra,Uttar Pradesh
3763705121,27.2105882,78.0046484,govind book shopee,books,Agra,Uttar Pradesh
3096861025,27.1907038,77.9919114,gumta cloth shop,clothes,Agra,Uttar Pradesh
3103358533,27.1892372,77.9611892,happy book stall,books,Agra,Uttar Pradesh
3127191487,27.1762219,77.989967,k d plazz,yes,Agra,Uttar Pradesh
3770102457,27.1881746,77.9950929,katheria Medical Shop,medical_supply,Agra,Uttar Pradesh
3101452484,27.2074576,77.9895483,khandari tiraha(chungi),car_repair,Agra,Uttar Pradesh
3103528304,27.1894608,78.0006597,khanna chemist,chemist,Agra,Uttar Pradesh
3103538933,27.1894596,77.9985892,lala paan wala,yes,Agra,Uttar Pradesh
3103357960,27.189141,77.9612087,mahesha book stall,books,Agra,Uttar Pradesh
3104945126,27.2002094,78.005448,maheshwari book crntre,books,Agra,Uttar Pradesh
3763705120,27.2106684,78.0046723,manav book shopee,books,Agra,Uttar Pradesh
3103532829,27.1894907,78.0007152,munyal brothers,yes,Agra,Uttar Pradesh
3103528328,27.1893087,77.9996032,nagaji garmrnts,yes,Agra,Uttar Pradesh
3788577003,27.1963238,78.0013626,panchhi petha wala,yes,Agra,Uttar Pradesh
4580988394,27.1671568,78.0088627,phone shop,mobile_phone,Agra,Uttar Pradesh
3756705092,27.2010107,78.0084268,reliance,supermarket,Agra,Uttar Pradesh
3770158954,27.2318627,78.0029781,sarika house,funeral_directors,Agra,Uttar Pradesh
3080085348,27.1789876,77.9671313,shree jee sweets,yes,Agra,Uttar Pradesh
3103518391,27.189452,78.0004601,student friends,yes,Agra,Uttar Pradesh
3101514763,27.2107902,78.0043829,vishal mega mart,yes,Agra,Uttar Pradesh
3788568940,27.2111327,78.0023213,vishal mega mart,supermarket,Agra,Uttar Pradesh
3079694564,27.157696,78.0556124,vishal megha mart,supermarket,Agra,Uttar Pradesh
2425033879,17.2184585,80.1541442,Anusha Kiranam & Fancy,convenience,Agraharam gate,Telangana
2425033859,17.2182856,80.1537383,Gowtham Food World,bakery,Agraharam gate,Telangana
2425033860,17.218383,80.1537383,Sree Ram Super Market,supermarket,Agraharam gate,Telangana
7121817485,13.5098451,75.102275,Tickets for trekking,ticket,Agumbe,Karnataka
4330491017,19.0977153,74.7498911,AC Depot,stationery,Ahilyanagar,Maharashtra
4331938851,19.1126379,74.7466028,C.Q.A.V Auditorium,musical_instrument,Ahilyanagar,Maharashtra
6119572193,19.1289757,74.7254462,Rironsi Honda,car,Ahilyanagar,Maharashtra
4861196114,32.0236745,76.7099176,Amit communication,stationery,Ahju,Himachal Prades
631823296,23.0235904,72.5912229,Arihant Agency,convenience,Ahmedabad,Gujarat
3293806562,23.0241153,72.5871222,Mukhwaas,kiosk,Ahmedabad,Gujarat
3291896461,23.0243077,72.5837441,Sheikh Mohimmad atik,kiosk,Ahmedabad,Gujarat
631823300,23.0248237,72.5902915,Vidyarthi,books,Ahmedabad,Gujarat
4578929190,23.0277198,72.5880275,readymadepocket,clothes,Ahmedabad,Gujarat
5136979522,23.0277361,72.5880236,readymadepocket,clothes,Ahmedabad,Gujarat
3292224461,23.0230239,72.5431753,sureshbhai prajapati,kiosk-indorni sabu dana khichdi,Ahmedabad,Gujarat
7321577485,12.7151076,77.2721988,Patel Mango Mandi,supermarket,Aijuru,Karnataka
3382350602,16.569149,76.993198,Public Distribution Shop,convenience,Aikura,Karnataka
5224886290,32.1091294,76.5357809,Adarsh Bakery,bakery,Aima,Himachal Prades
676474648,32.1245874,76.5335739,Andaz Beauty Parlour,hairdresser,Aima,Himachal Prades
5117112332,32.1141383,76.5350868,Dewan Garments,clothes,Aima,Himachal Prades
5117109325,32.1140316,76.5351082,Dressup,clothes,Aima,Himachal Prades
5117170404,32.1097413,76.5365588,Dry Fruit Vendor,greengrocer,Aima,Himachal Prades
5117109223,32.1140463,76.535101,Family Store,clothes,Aima,Himachal Prades
5117108135,32.114054,76.5350919,Gul Sons,department_store,Aima,Himachal Prades
6140242132,32.1100497,76.5400787,Hero Sprint Store,bicycle,Aima,Himachal Prades
5117056902,32.1141202,76.5349074,Home Delite,houseware,Aima,Himachal Prades
4377353325,32.1202555,76.5396282,Kailash Provision Store,convenience,Aima,Himachal Prades
4377250270,32.1098109,76.5402076,KatWalk,clothes,Aima,Himachal Prades
5117116977,32.1142124,76.5350777,Kids Junction,clothes,Aima,Himachal Prades
5117121578,32.114054,76.5351255,Louis Philippe,clothes,Aima,Himachal Prades
5102864815,32.110199,76.5363258,M/s Ishwar Dass and Sons,weapons,Aima,Himachal Prades
5117112853,32.1141736,76.5350787,Manas,clothes,Aima,Himachal Prades
5117065210,32.1140134,76.5346821,Manglani Garments,clothes,Aima,Himachal Prades
5117113990,32.1141547,76.5350868,Meena Bazaar,clothes,Aima,Himachal Prades
5117119263,32.1141401,76.5348703,Monte Carlo,clothes,Aima,Himachal Prades
7005624806,32.109444,76.5362917,Nagpal Store,supermarket,Aima,Himachal Prades
5117061936,32.1141474,76.5350549,Nanda Jewellers,jewelry,Aima,Himachal Prades
4559490174,32.1090492,76.5367416,National Dairy,dairy,Aima,Himachal Prades
6395964791,32.108612,76.5356116,Nihal Chand Wazir Chand,department_store,Aima,Himachal Prades
5117109450,32.1140152,76.5351163,Octave,clothes,Aima,Himachal Prades
4377352880,32.1206926,76.5385541,R K Boutique,tailor,Aima,Himachal Prades
5102876947,32.1089476,76.5359977,Red Rose Beauty Parlour,hairdresser,Aima,Himachal Prades
5117111929,32.1141039,76.5350868,Samsung,electronics,Aima,Himachal Prades
4377349874,32.1207799,76.5390041,Sood Agency;Sood Agencies,convenience,Aima,Himachal Prades
4377352067,32.1206451,76.5382739,Surinder Kiryana Store,convenience,Aima,Himachal Prades
5117112218,32.1141831,76.5350574,Unisex Salon,hairdresser,Aima,Himachal Prades
5117200157,32.1092671,76.5358186,Variety Shoe Store,shoes,Aima,Himachal Prades
5117138733,32.1136702,76.5351094,Vastram,clothes,Aima,Himachal Prades
3669625244,32.1109535,76.5360621,Woodland Store,shoes,Aima,Himachal Prades
5117119495,32.1141349,76.5350624,Wrangler,clothes,Aima,Himachal Prades
6956683029,12.2836165,75.1076062,aysha woods,trade,Aingoth,Kerala
4563451452,16.119128,74.2110412,Fish Market,supermarket,Ajara,Maharashtra
1545193201,23.2338894,69.7989278,Abdul Hasan Khatri,handicraft,Ajarakhpur,Gujarat
1545193205,23.234319,69.7947652,Abdul Rehman Budha Khatri,handicraft,Ajarakhpur,Gujarat
1545193315,23.2346088,69.7992596,Ismail Mohammed Khatri,handicraft,Ajarakhpur,Gujarat
1545193340,23.234115,69.798888,Khatri Ibrahim Isa,handicraft,Ajarakhpur,Gujarat
1545193343,23.2346149,69.7950266,Khatri Ibrahim Isa,handicraft,Ajarakhpur,Gujarat
1545193407,23.2341178,69.7939359,S O Khatri,handicraft,Ajarakhpur,Gujarat
4380570691,26.5146721,74.6339789,City Square Mall,mall,Ajmer,Rajasthan
4451571492,26.4666457,74.6406939,life style store,clothes,Ajmer,Rajasthan
4284130876,30.7698556,75.6500237,Nilibar Silk Store,clothes,Akalgarh,Punjab
7111809649,10.6888099,76.2677569,sivari honda,motorcycle,Akamala,Kerala
7334579963,11.2855095,76.239341,Hyundai,car,Akambadam,Kerala
7334579962,11.2854727,76.238873,V K Store,general,Akambadam,Kerala
6550857433,26.407899,82.5311063,New Purvanchal Krishi Vikas Agency,supermarket,Akbarpur,Uttar Pradesh
6410870073,19.532713,77.4159104,Shree Govindraj jewellers,jewelry,Akhada Balapur,Maharashtra
5246689060,20.7181566,77.0153261,Jatharpeth satav chawk,convenience,Akola,Maharashtra
3871331669,13.046149,75.2193322,Keddu,convenience,Aladangadi,Karnataka
3856040330,30.1369766,74.1935754,Raj Drycleaners,laundry,Alamgarh,Punjab
929042180,30.8089669,75.8681396,milk products centre,supermarket,Alamgir,Punjab
543629276,11.0107,76.3471,Eyekon Studio,video,Alanallur villa,Kerala
4292831732,8.2434902,77.3015824,Aseem Bakery,supermarket,Alancode,Tamil Nadu
4292839294,8.2433711,77.3016144,Sulaiha Store,supermarket,Alancode,Tamil Nadu
4292839295,8.2432256,77.3016072,Zam Zam Bakery,supermarket,Alancode,Tamil Nadu
4455202890,10.1262646,76.31305,Malikapeedika,car_repair,Alangad,Kerala
6807952580,10.1309941,76.282369,Naveen Printers press,printing,Alangad,Kerala
4735245548,12.0209097,79.7984988,Devaki flower shop,florist,Alankuppam,Puducherry
4735226877,12.0183597,79.7983915,bike mechanic,motorcycle,Alankuppam,Puducherry
3984742058,9.4916507,76.3350814,Alhind Travels,travel_agency,Alappuzha,Kerala
994696716,9.4967322,76.338486,Alleppey Opticals,optician,Alappuzha,Kerala
3955716205,9.4952163,76.3258037,Car Fashions,car_parts,Alappuzha,Kerala
1473193354,9.4917491,76.3367859,Chevrolet Showroom,car,Alappuzha,Kerala
3954952857,9.4940668,76.3290676,Coirfed Showroom,yes,Alappuzha,Kerala
3990191208,9.4921929,76.3293938,Essan Books,books,Alappuzha,Kerala
6060974702,9.4957081,76.3442926,Food Basics,supermarket,Alappuzha,Kerala
3990453730,9.4914643,76.3358568,Gadhi Grama Saubhagya Showroom,yes,Alappuzha,Kerala
994696727,9.4966515,76.3387585,Govt Alcohol Shop,alcohol,Alappuzha,Kerala
1474007504,9.4971321,76.3284091,Himalaya Bakery,bakery,Alappuzha,Kerala
6023673063,9.4988827,76.3491019,Joseph store,general,Alappuzha,Kerala
3979375279,9.4951529,76.3385916,KNG Textiles,clothes,Alappuzha,Kerala
4656506390,9.4944298,76.347833,Kerala State Beverages Corporation Outlet,alcohol,Alappuzha,Kerala
3951238921,9.4907631,76.3262596,Koya's vegitable store,greengrocer,Alappuzha,Kerala
3950708821,9.4964914,76.3422673,Kream Korner cafe,art,Alappuzha,Kerala
3990453436,9.4950201,76.3377435,Krishnas Textiles,clothes,Alappuzha,Kerala
4339356990,9.5069843,76.3400929,Lavender Boutique,clothes,Alappuzha,Kerala
3979294947,9.4946036,76.3293058,MTS Distributer,mobile_phone,Alappuzha,Kerala
1473190765,9.4905333,76.3382984,Malabar Gold Jewellery,jewelry,Alappuzha,Kerala
4007570364,9.5002894,76.3411324,More,supermarket,Alappuzha,Kerala
4578805491,9.5072043,76.3277012,NRN Kings Arcade,car,Alappuzha,Kerala
3979296577,9.4945292,76.332771,Nadilath G Mart,houseware,Alappuzha,Kerala
5378023124,9.4915907,76.3374238,Noor Opticals,optician,Alappuzha,Kerala
5378002925,9.4913958,76.3373327,Novasoft The complete IT Solutions,computer,Alappuzha,Kerala
5378023122,9.4914373,76.3373402,Optik City,optician,Alappuzha,Kerala
3960212019,9.4967663,76.3249399,Padinjare Shafi Masjid Kabarsthan,funeral_directors,Alappuzha,Kerala
5378023123,9.4913937,76.3373541,Polonia,beauty,Alappuzha,Kerala
4729016993,9.4980606,76.3356536,Primier Supermarket,supermarket,Alappuzha,Kerala
3949570673,9.4845906,76.3223839,Railway Ticket Counter,ticket,Alappuzha,Kerala
3952121917,9.4911641,76.3291579,Saudi Saloon,hairdresser,Alappuzha,Kerala
3984789157,9.4920508,76.3274389,Save Supermarket,supermarket,Alappuzha,Kerala
3966725394,9.4947659,76.3391333,Seemas,clothes,Alappuzha,Kerala
1474005969,9.4837285,76.3372785,Select Super Market,supermarket,Alappuzha,Kerala
5378023125,9.4914208,76.3373157,Smash Sports Centre,sports,Alappuzha,Kerala
1473213025,9.4747381,76.3372315,TATA Service Centre,car_repair,Alappuzha,Kerala
6339859101,9.498048,76.3440628,TK Trades spices and dry fruits,general,Alappuzha,Kerala
4655129496,9.5007868,76.3443939,Tickets,ticket,Alappuzha,Kerala
4655129591,9.5004959,76.3431373,Veneece Barber Shop,hairdresser,Alappuzha,Kerala
5378024821,9.4915008,76.3373482,Vigneswara Tours and Travels,travel_agency,Alappuzha,Kerala
4124105013,9.4955734,76.3386171,asho chappels,shoes,Alappuzha,Kerala
4124116702,9.4947637,76.3364612,c fed t m mart,supermarket,Alappuzha,Kerala
4580777889,26.1821059,78.1730332,Mitsubishi motors,car_repair,Alapur,Madhya Pradesh
6038691395,32.22837,77.1964154,Kilta Cafe,coffee,Aleo,Himachal Prades
2441199728,10.8105783,78.6311042,Allithurai bridge,seafood,Allithurai,Tamil Nadu
5002397146,15.4514989,80.1175539,Sri Shiridi Saibaba Seva Asramam,religion,Alluru Aakula,Andhra Pradesh
6897144085,28.1760996,94.8017673,Old Aalo Marketplace,supermarket,Along,Arunachal Prade
7160446396,8.1972911,77.3877723,Kings musicals,music,Aloor,Tamil Nadu
7130198000,8.6808851,76.9089062,Car Plaza,car_repair,Alumanoor,Kerala
4539094390,8.688299,76.9068428,Chirath press,copyshop,Alumanoor,Kerala
7130170226,8.6855847,76.9075565,Hitech Moto Garage,car_repair,Alumanoor,Kerala
7130174146,8.6804396,76.9088928,MRF Exclusive Retail Shop,variety_store,Alumanoor,Kerala
7130196246,8.6818907,76.9089579,Yamaha Bike Corner,yes,Alumanoor,Kerala
3846964156,10.1188175,76.3431415,5 star fresh chips,bakery,Aluva,Kerala
4701732656,10.0800636,76.3389865,Ambattukav Ceek Super Market,supermarket,Aluva,Kerala
3676244642,10.1127685,76.353775,BBS Supermarket,supermarket,Aluva,Kerala
5522817965,10.0817404,76.3643601,Barber Shop,beauty,Aluva,Kerala
6780734785,10.1117905,76.351901,Bharathi Pets World,pet,Aluva,Kerala
4711922887,10.1111129,76.3495309,Bread World,bakery,Aluva,Kerala
5524937169,10.0814791,76.3636982,Cigarette Shop,convenience,Aluva,Kerala
4182925189,10.1056893,76.3601567,Cochin Computers,computer,Aluva,Kerala
4182936754,10.1048703,76.3593098,Colleen Beauty Care,beauty,Aluva,Kerala
4747859907,10.1076343,76.3570168,Cooperative Department Store,department_store,Aluva,Kerala
5585992120,10.0815036,76.3619709,Corner Store,convenience,Aluva,Kerala
3676241140,10.1120526,76.3539673,Divya Hearing Aids,hearing_aids,Aluva,Kerala
5798428854,10.1016088,76.349066,Hero Motors,car,Aluva,Kerala
4711922888,10.1131205,76.3465841,Jos Electrical Trading Company,electrical,Aluva,Kerala
6779426785,10.1084168,76.3598594,Jose Furnitures,furniture,Aluva,Kerala
5522820917,10.0816622,76.3643644,K.K.Mala Fish & Meat,yes,Aluva,Kerala
5544781315,10.0819367,76.3643837,K.K.Mala Fruits & Vegetables,greengrocer,Aluva,Kerala
6816104858,10.1121833,76.352459,K.R. Bakes,bakery,Aluva,Kerala
5759834821,10.0802565,76.3644773,KMJ Store,general_store,Aluva,Kerala
4664283757,10.1241064,76.3397709,KR Bakers Aluva,bakery,Aluva,Kerala
5522820265,10.0811705,76.3645305,Kayees Bakery & Juice Shop,bakery,Aluva,Kerala
5524937359,10.0813912,76.3645251,Kayees Hardware Store,hardware,Aluva,Kerala
5234717821,10.0814913,76.3644886,Kayees Store,convenience,Aluva,Kerala
6816103236,10.1100826,76.3534621,Kerala State Beverage Corporation,alcohol,Aluva,Kerala
4747859522,10.1074943,76.3571379,Kerala State Financial Enterprise Ltd,money_lender,Aluva,Kerala
5522817963,10.0815792,76.3643548,Kochara Bakery,bakery,Aluva,Kerala
5522820266,10.0898444,76.3623759,Majeed's Store,convenience,Aluva,Kerala
5814075353,10.1070773,76.3644787,Manju Garments - Factory Outlet,clothes,Aluva,Kerala
4747859309,10.1080527,76.3569111,Meleth Stores,bakery,Aluva,Kerala
6780744786,10.1110104,76.3511208,Navya Bake House,bakery,Aluva,Kerala
6779420185,10.1081792,76.3599721,New Tip Top Furnitures,furniture,Aluva,Kerala
6758985790,10.1073705,76.3652026,PMM Tyre House,tyres,Aluva,Kerala
7227141448,10.1127395,76.3539253,Pandhal Cake Shop,pastry,Aluva,Kerala
5599780742,10.0893595,76.363445,Pat Gents & Kids Salon,beauty,Aluva,Kerala
6816104859,10.112585,76.3522374,Photone Digital Studio & Colour Lab,photo,Aluva,Kerala
6779426786,10.108034,76.3599631,Priyadarsini Furnitures,furniture,Aluva,Kerala
6779419386,10.1083909,76.3599877,Quality Furnitures,furniture,Aluva,Kerala
6113514514,10.1078793,76.3563189,Reservation Counter,ticket,Aluva,Kerala
5240583721,10.0806782,76.3644782,Royal Bakes & Sweets,bakery,Aluva,Kerala
4747859703,10.1078891,76.356973,Royal Sweets,bakery,Aluva,Kerala
4711924442,10.1095271,76.351849,Sewing Machine Repairs,sewing,Aluva,Kerala
5522821536,10.0800197,76.3643316,Tea Shop,tea,Aluva,Kerala
6274402468,10.0904001,76.3614898,Thoufeeq Bakery and Tea stall,bakery,Aluva,Kerala
5585997931,10.1088242,76.3717507,XTreme Car Accessories,car_parts,Aluva,Kerala
3846965875,10.1190186,76.3430789,chaitram,bakery,Aluva,Kerala
7335032977,10.1305281,76.346663,raja sree motors,car_showroom,Aluva,Kerala
2712668655,16.9985111,79.9647022,Kodad Fish Market,seafood,Alvalapuram,Telangana
6840090667,16.9950551,79.9754751,Sri Venkateswara Automobiles,motorcycle,Alvalapuram,Telangana
7076861116,10.5600942,76.1706485,AANDM,hairdresser_supply,Amala Nagar,Kerala
7121600079,10.5626863,76.1686407,Ashreya medicals,medical_supply,Amala Nagar,Kerala
7121600065,10.5671731,76.1714436,Famous auto and garage,yes,Amala Nagar,Kerala
7121600053,10.566743,76.1732211,ILTEK INDUSTRIES,yes,Amala Nagar,Kerala
7121558072,10.5526057,76.1582617,Innyas Bakers,bakery,Amala Nagar,Kerala
7121877666,10.5604021,76.1699712,KAM Chips,bakery,Amala Nagar,Kerala
7121877669,10.5589447,76.1711377,Kap store life style solutions,yes,Amala Nagar,Kerala
7123815765,10.5440885,76.1448989,Krishna bakery,bakery,Amala Nagar,Kerala
7121558074,10.5526403,76.1529931,Marvel Jewellery,jewelry,Amala Nagar,Kerala
7121528256,10.5523992,76.1519157,Pc Traders,trade,Amala Nagar,Kerala
7121600078,10.5668801,76.1655327,Ramanika collections,jewelry,Amala Nagar,Kerala
7111699461,10.5636366,76.1716752,Rationshop,government,Amala Nagar,Kerala
7121600052,10.5664174,76.1735857,Ravi Ettan's Kada,yes,Amala Nagar,Kerala
1962886841,10.5601098,76.1705914,Sree Karthika,bakery,Amala Nagar,Kerala
7121600080,10.5621654,76.1689563,Stationary shop,yes,Amala Nagar,Kerala
7121600051,10.5661366,76.1735127,Vijaya Cafe,yes,Amala Nagar,Kerala
7076726961,10.5627636,76.1605038,kandegandathu supermarket,supermarket,Amala Nagar,Kerala
7111469692,10.5496931,76.1498021,kartika orchids,yes,Amala Nagar,Kerala
3910877029,15.3947957,75.0836184,More Supermarket,supermarket,Amaragol,Karnataka
3591113767,15.3965697,75.083913,SVR Mitsubishi,car_repair,Amaragol,Karnataka
4686401399,15.3920599,75.0954767,Zimoto Mutli brand Auto Care,car_repair,Amaragol,Karnataka
5640935425,16.5394176,80.5130184,Laksgminarayanastore,department_store,Amaravati,Andhra Pradesh
4929284125,16.4935319,80.594071,"Sri Anjaneyam Tiles, Marbles & Granites",tiles,Amaravati,Andhra Pradesh
4929271427,16.4919155,80.5988319,Sri Lakshmi Balaji Sweets & Bakery,bakery,Amaravati,Andhra Pradesh
3157767624,15.2605667,76.3787155,Vegetable market,greengrocer,Amaravati,Karnataka
7043564261,8.3997166,77.0866406,Awathy Beauty Parlour,beauty,Amaravila,Kerala
7068716564,8.3987175,77.0886428,Bhavana Textiles,clothes,Amaravila,Kerala
7130311228,8.4003311,77.0878488,JIO store,telecommunication,Amaravila,Kerala
7043564247,8.4011787,77.0876057,Krishna Bakery,bakery,Amaravila,Kerala
7043570406,8.4017717,77.0875953,Pereppadan's Gold Park,jewelry,Amaravila,Kerala
7043664052,8.3985675,77.0880197,RMV Readymade & Textiles,clothes,Amaravila,Kerala
7043664051,8.3983839,77.0880381,S N Bakery,bakery,Amaravila,Kerala
7043534899,8.4032622,77.0859907,S V Press,books,Amaravila,Kerala
7130329488,8.399598,77.0876325,SN Bakery,bakery,Amaravila,Kerala
7082055415,8.3883364,77.1099797,Sahakarana Neethi Super Market,supermarket,Amaravila,Kerala
7062620015,8.3970195,77.0895303,Thampurati Bakery & Cool Bar,bakery,Amaravila,Kerala
7068716565,8.3985199,77.0887725,Thrissur Fashion Jewellery,jewelry,Amaravila,Kerala
7037962252,8.4025772,77.0856494,Vismaya,bakery,Amaravila,Kerala
7081859219,8.397614,77.0896735,Vodafone,mobile_phone,Amaravila,Kerala
2909217113,30.0356961,74.2033769,Tyre maintenance,tyres,Amarpura,Punjab
6992866754,9.6200201,76.6050865,Eapens,supermarket,Amayannoor,Kerala
3654275401,19.6154632,75.7878684,Yogesh Kirana,yes,Ambad,Maharashtra
3654340370,19.6176213,75.7973637,Yogeshwar Provision,yes,Ambad,Maharashtra
4137480589,30.3428572,76.8301473,Market,greengrocer,Ambala,Haryana
1447314598,30.3404213,76.8278467,Theka,alcohol,Ambala,Haryana
7322091966,9.953223,76.3900252,Golden Bakery,bakery,Ambalamugal,Kerala
7322101895,9.9532364,76.3894117,Unique Fashions,clothes,Ambalamugal,Kerala
3663320152,10.8328496,76.4115868,Aruljyothi Sweets,bakery,Ambalapara,Kerala
3663322176,10.8310615,76.4119153,Auto Electricals,car_repair,Ambalapara,Kerala
3663321667,10.8330933,76.4112965,Bakery,bakery,Ambalapara,Kerala
3663322175,10.8311484,76.4119159,Balan's Vegetable,greengrocer,Ambalapara,Kerala
3663320150,10.8328612,76.4116452,Chavakkad Stores,confectionery,Ambalapara,Kerala
3663329525,10.832647,76.4127809,Fish Seller,seafood,Ambalapara,Kerala
3663321666,10.8331684,76.4112469,Hardware Shop,yes,Ambalapara,Kerala
3663327872,10.8325002,76.412934,Hardwares,hardware,Ambalapara,Kerala
3663320660,10.8301469,76.4118743,K.K. Saloon,hairdresser,Ambalapara,Kerala
3671191325,10.8326635,76.4115043,Malabar Hardwares,hardware,Ambalapara,Kerala
3669893751,10.8303556,76.4119504,Maveli Stores,supermarket,Ambalapara,Kerala
3671194125,10.8325819,76.4144435,Milma Milk Society,yes,Ambalapara,Kerala
3663271056,10.8312005,76.4119575,Mutton Shop,butcher,Ambalapara,Kerala
3671197997,10.8335332,76.411389,Nila Bakery,bakery,Ambalapara,Kerala
3669897136,10.8292781,76.4117171,Ration Shop,convenience,Ambalapara,Kerala
3663321668,10.8328671,76.4116958,Vegetables,greengrocer,Ambalapara,Kerala
5527702624,11.3852136,75.8216235,UKH Super Market,supermarket,Ambalappadu,Kerala
4834357020,11.6198177,76.2114351,Hiba Hypermarket,supermarket,Ambalavayal,Kerala
7180138685,11.6333558,76.223176,Wayanad Backpackers,travel_agency,Ambalavayal,Kerala
7123860947,10.4321521,76.2753764,5 star,supermarket,Amballur,Kerala
4137523489,10.4409128,76.2826491,"Leisure Land Healrh club,Vendore",sports,Amballur,Kerala
7121888660,10.4214628,76.268282,shobha,yes,Amballur,Kerala
3751334559,10.6351518,76.9407671,Krishna Supermarket,supermarket,Ambarampalayam,Tamil Nadu
3751332366,10.641087,76.9624848,Pasumai Supermarket,supermarket,Ambarampalayam,Tamil Nadu
3237439667,18.6399231,76.3778944,ashok photo studio,photo,Ambejogai,Maharashtra
3230903962,18.6660837,76.3693439,khadi mission,furnace,Ambejogai,Maharashtra
3237431744,18.6839643,76.3649742,vaidnath karkhana,fabric,Ambejogai,Maharashtra
4592040531,15.1715671,73.9741139,Morae's Digital Photo Studio,photo,Ambelim,Goa
4592019140,15.1715908,73.9741132,Moraes,florist,Ambelim,Goa
4592040534,15.1716965,73.9740657,Pastry Palace,pastry,Ambelim,Goa
5187591929,28.7953718,95.8985225,Sales emporium,yes,Amboli,Arunachal Prade
2623283267,11.1590526,77.3087999,India Knits,clothes,Ammapalayam,Tamil Nadu
4617026696,10.9782155,76.2860152,Kodikuthimala tea shops,tea,Amminikkad,Kerala
4899555564,20.933651,77.7592072,A K Communication,convenience,Amravati,Maharashtra
4901613939,20.9279747,77.7512491,A. Kenzo Fashion,convenience,Amravati,Maharashtra
4903184346,20.9484101,77.7404246,A.B. Communication,convenience,Amravati,Maharashtra
4903521628,20.9495263,77.7502093,ABC service centre,convenience,Amravati,Maharashtra
4899464383,20.9445647,77.7677001,Aarti Provisions,convenience,Amravati,Maharashtra
4905625277,20.9158385,77.7461783,Aasara Medical,yes,Amravati,Maharashtra
4905182459,20.9064026,77.747252,Aashirwad Industries,convenience,Amravati,Maharashtra
4901519505,20.9159541,77.7718893,Aavishkar Hardware,yes,Amravati,Maharashtra
4901532921,20.9177306,77.7735597,Abhishek Motors,car,Amravati,Maharashtra
4903210738,20.9413508,77.7297094,Abuzar Hardware & Cement Depot,convenience,Amravati,Maharashtra
4905162686,20.8967055,77.7445376,Agarwal Bandhu,convenience,Amravati,Maharashtra
4903727441,20.9183627,77.7559401,Agarwal Complex,mall,Amravati,Maharashtra
4901259495,20.9317539,77.7510495,Agarwal Dry Fruit Center,convenience,Amravati,Maharashtra
4901593696,20.9281576,77.7530489,Agmark Emporium,convenience,Amravati,Maharashtra
4898978423,20.9308329,77.7776146,Agrawal Stationary,convenience,Amravati,Maharashtra
4901518859,20.9339887,77.7430224,Airtel Banking Point,convenience,Amravati,Maharashtra
4899426370,20.9517783,77.7619281,Airtel Relationship Center,convenience,Amravati,Maharashtra
4905625316,20.9110243,77.743727,All In ONe Corner,yes,Amravati,Maharashtra
4898794028,20.8670429,77.7351135,Almas Steel,convenience,Amravati,Maharashtra
4901048844,20.9330871,77.755326,Aman Shah & Co,convenience,Amravati,Maharashtra
4905235523,20.9167353,77.7487919,Amarkrish Stationers & General,supermarket,Amravati,Maharashtra
4899468760,20.9435376,77.7691672,Ambika Plywood,convenience,Amravati,Maharashtra
4899630917,20.9310595,77.7502726,Amit Hat,convenience,Amravati,Maharashtra
4903626590,20.9395963,77.7568094,Amravati Movers And Packers,convenience,Amravati,Maharashtra
4900922601,20.9298149,77.7550942,Anand Saree Center,convenience,Amravati,Maharashtra
4899468693,20.9443016,77.7689097,Anant Super Bazar,supermarket,Amravati,Maharashtra
4901519916,20.9332329,77.7437628,Aniket Mobile & General,convenience,Amravati,Maharashtra
4900912872,20.9308295,77.7541662,Aniruddha Fashion,convenience,Amravati,Maharashtra
4905625310,20.9107975,77.7393859,Annapurna Dwarkamai Daily Need And Chat Centre,yes,Amravati,Maharashtra
4901692528,20.9620277,77.7497791,Anurag General Store,convenience,Amravati,Maharashtra
4900917548,20.9305815,77.7541769,Apna AC Cloth Shop,convenience,Amravati,Maharashtra
4903569010,20.9436647,77.7620325,Apna Dry Fruit Store,convenience,Amravati,Maharashtra
4900906493,20.9311552,77.7538148,Aradhana Fashions Pvt. Ltd,convenience,Amravati,Maharashtra
4899438646,20.9491131,77.7637091,Archies Gift Shop,gift,Amravati,Maharashtra
4903547652,20.9462824,77.7586583,Ashirwad Hardwares,convenience,Amravati,Maharashtra
4903590093,20.9429258,77.7632824,Ashok General Store,convenience,Amravati,Maharashtra
4900938554,20.9297489,77.7563463,Ashok Sales & Top Cushion Works,convenience,Amravati,Maharashtra
4898723160,20.8636369,77.7349967,Ashokkumar Komalchand,supermarket,Amravati,Maharashtra
4901687866,20.9608956,77.7519785,Asian Paints,convenience,Amravati,Maharashtra
4905183747,20.9091712,77.7464742,Aslam Stores,convenience,Amravati,Maharashtra
4900969259,20.93019,77.7615301,Aspire Home Finance,convenience,Amravati,Maharashtra
4901682809,20.9594704,77.7533115,Assam Tea,convenience,Amravati,Maharashtra
4899418150,20.9532612,77.7660587,Atharva Health Club,convenience,Amravati,Maharashtra
4899589259,20.9300285,77.7562406,B Mohanlal Agro Traders,convenience,Amravati,Maharashtra
4900938555,20.9296512,77.7564509,B.Mohanlal Agro Traders,convenience,Amravati,Maharashtra
4901704068,20.9635205,77.7507849,BHARTI-AXA LIFE INSURANCE CO,convenience,Amravati,Maharashtra
4901693894,20.9631874,77.7489637,Baba Ramdev Marble Traders,convenience,Amravati,Maharashtra
4899442378,20.9479734,77.7644253,Bajaj Book Center,convenience,Amravati,Maharashtra
4901614407,20.9274661,77.7514798,Bajaj Finserv,convenience,Amravati,Maharashtra
4903857614,20.8945162,77.7436519,Bajrang Kirana,convenience,Amravati,Maharashtra
4903665966,20.9431211,77.7575431,Bajrang Oil Mill,supermarket,Amravati,Maharashtra
4899435414,20.9506386,77.7626255,Balaji General Store,convenience,Amravati,Maharashtra
4901241193,20.9332595,77.7548556,Balaji Krushi Kendra,convenience,Amravati,Maharashtra
4905625293,20.9149359,77.7436824,Balaji Medicals & Generals,yes,Amravati,Maharashtra
4903638641,20.9360566,77.7556775,Balram Kartarmal Sons,convenience,Amravati,Maharashtra
4901510814,20.9154388,77.7720538,Banaras Sadi Center,yes,Amravati,Maharashtra
4900894085,20.9323502,77.7503655,Barsainya Kirana Ayurvedic Store,convenience,Amravati,Maharashtra
4905230219,20.9181022,77.7483963,Basera Complex,mall,Amravati,Maharashtra
4901174574,20.931591,77.7548583,Best Bazaar,supermarket,Amravati,Maharashtra
4903659616,20.9422923,77.756029,Bharat Medicals And General Stores,chemist,Amravati,Maharashtra
4903639454,20.9366052,77.7548085,Bharat Trading Hub,supermarket,Amravati,Maharashtra
4905143991,20.8826604,77.7454886,Bharti Walmart,supermarket,Amravati,Maharashtra
4901034557,20.9344174,77.755267,Bhavani Traders,convenience,Amravati,Maharashtra
4900862521,20.9313231,77.7501617,Bhumi Auto Parts,car_repair,Amravati,Maharashtra
4901696025,20.9635075,77.7491378,Binil's Adda,convenience,Amravati,Maharashtra
4901582103,20.9277818,77.7536765,Blackberry Mobile Shop,convenience,Amravati,Maharashtra
4900998250,20.9356449,77.7566162,Blue Dart Pvt. Ltd,convenience,Amravati,Maharashtra
4900874116,20.9314909,77.7515966,Bombay Dyeing,convenience,Amravati,Maharashtra
4903643594,20.9358717,77.7531971,Bombay Maharashtra Transport,convenience,Amravati,Maharashtra
4903172752,20.9400843,77.7445795,Bombay Pipes,convenience,Amravati,Maharashtra
4903179204,20.9441867,77.7423048,Bombay Radium Art,convenience,Amravati,Maharashtra
4905163519,20.895623,77.7442211,Broadband Connections,convenience,Amravati,Maharashtra
4899471185,20.9127559,77.75278,Cafe Coffee Day,coffee_shop,Amravati,Maharashtra
4898990501,20.9311286,77.7827591,Camp General Store,convenience,Amravati,Maharashtra
4903185929,20.9479191,77.7403173,Capital Motor Branch,car,Amravati,Maharashtra
4905625292,20.9158015,77.7434693,Chakrapani Medical Pharmacy,pharmacy,Amravati,Maharashtra
4900906952,20.9310876,77.7543191,Chandak Sarees,convenience,Amravati,Maharashtra
4901473418,20.9355619,77.7396374,Chara Bazar,supermarket,Amravati,Maharashtra
4899487107,20.9088051,77.7567864,Chintamani Electricals & Hardware,electronics,Amravati,Maharashtra
4898987982,20.9310935,77.7807635,Chishti Electrical,convenience,Amravati,Maharashtra
4903182377,20.9464587,77.7409718,Choudhari Light House And Generators,convenience,Amravati,Maharashtra
4901596252,20.9277818,77.7524454,Chunnu Munnu Kids and ladies wear,convenience,Amravati,Maharashtra
4899468744,20.9438182,77.7689178,City Centre,convenience,Amravati,Maharashtra
4901073221,20.9323757,77.756761,City News Amravati,convenience,Amravati,Maharashtra
4901103189,20.9313761,77.755326,City Site,supermarket,Amravati,Maharashtra
4901046654,20.9335731,77.755605,Cotton Market,supermarket,Amravati,Maharashtra
4900889360,20.9311978,77.7535359,Cottonking Pvt,convenience,Amravati,Maharashtra
4901092484,20.9321753,77.7565572,Cottonking Store,convenience,Amravati,Maharashtra
4905167220,20.8984069,77.7475819,D Mart,supermarket,Amravati,Maharashtra
4905168792,20.8985547,77.7470669,D.Raj Dairy Parlour,convenience,Amravati,Maharashtra
4899509418,20.9381193,77.7797873,DMart,supermarket,Amravati,Maharashtra
4900924531,20.9296145,77.7542574,Deena Saree Center,convenience,Amravati,Maharashtra
4901524508,20.9159679,77.773646,Deta Care System,yes,Amravati,Maharashtra
4900938549,20.9294633,77.7559011,Dilip Traders,convenience,Amravati,Maharashtra
4899509270,20.937488,77.7798543,Dotivilla Mall,supermarket,Amravati,Maharashtra
4903223520,20.9381844,77.7373054,Dr APJ Abdul Kalam Udyan,garden_centre,Amravati,Maharashtra
4901335272,20.932401,77.7483786,Dry Fruit Shopee Jaikisan Harikisah Daga,supermarket,Amravati,Maharashtra
4898985287,20.9310008,77.7803907,Eagle Auto Parts,convenience,Amravati,Maharashtra
4903590363,20.9425976,77.7638805,Eagle Bakery,bakery,Amravati,Maharashtra
4905625309,20.911029,77.739827,Ekvira Dudh Deary & Daily Needs,yes,Amravati,Maharashtra
4903848980,20.8944085,77.7354739,Electrical Services,convenience,Amravati,Maharashtra
4901067838,20.9327064,77.7571687,Exide Battery Shop,convenience,Amravati,Maharashtra
4900923120,20.9302759,77.7546517,Express Mobile,convenience,Amravati,Maharashtra
4903631025,20.9399445,77.7587111,Fancy Girl G Honesty Creation,convenience,Amravati,Maharashtra
4903541598,20.9252264,77.767379,Fashion Era Boutique,boutique,Amravati,Maharashtra
4900948066,20.9291777,77.7582641,Fishland Pet shop,convenience,Amravati,Maharashtra
4901192805,20.9322499,77.7551775,Food Zone,convenience,Amravati,Maharashtra
4903174455,20.9404375,77.7444561,Forno Bakers,bakery,Amravati,Maharashtra
4898792420,20.8668099,77.735953,Friends Mobile & Xerox,convenience,Amravati,Maharashtra
4898988229,20.9309582,77.7828503,Friends Mobile Shop,convenience,Amravati,Maharashtra
4901689994,20.9616145,77.7517532,GAJANAN Provision,convenience,Amravati,Maharashtra
4901521943,20.9345381,77.7397234,GARGI PROVISION KIRANA STORE,convenience,Amravati,Maharashtra
4900957162,20.9287595,77.7598886,GTPL Hathway Ltd,convenience,Amravati,Maharashtra
4901693318,20.9627716,77.7495725,Ganesh Bhaji Bhandar,convenience,Amravati,Maharashtra
4905182024,20.9057461,77.7482417,Ganjare Garaj,convenience,Amravati,Maharashtra
4903625400,20.9396239,77.7571822,Gati Kintetsu Exp Pvt Ltd,convenience,Amravati,Maharashtra
4903447276,20.9461481,77.7715373,Gayatri Fataka Bhandar,convenience,Amravati,Maharashtra
4899630690,20.9313051,77.7505193,Geeta Bags,convenience,Amravati,Maharashtra
4901691154,20.962426,77.7505998,Geetai Photo Studio,photo,Amravati,Maharashtra
4905625276,20.9162968,77.7487353,Ghadhaval Sweets,yes,Amravati,Maharashtra
4899599404,20.9298721,77.7553393,Ghansham Sales Center,convenience,Amravati,Maharashtra
4901688850,20.9618299,77.751442,Gitai General Store,convenience,Amravati,Maharashtra
4905625284,20.9171022,77.7447676,Githai Provisions,yes,Amravati,Maharashtra
4898791946,20.8662961,77.7363714,Global Motors,car,Amravati,Maharashtra
4900925057,20.9296796,77.7548126,Global Retails,convenience,Amravati,Maharashtra
4901774238,20.9525421,77.739736,Golen Hardware,convenience,Amravati,Maharashtra
4903588913,20.9427554,77.7621854,Goodluck (Daulatram General Store),convenience,Amravati,Maharashtra
4901235945,20.9323651,77.754228,Gopal Kirana Stores,convenience,Amravati,Maharashtra
4905176227,20.90416,77.7478394,Govind Hardware & Electricals,convenience,Amravati,Maharashtra
4901193536,20.9317088,77.7538981,Guitar Shop,music,Amravati,Maharashtra
4899482118,20.9105574,77.7571828,Gulhane Traders,yes,Amravati,Maharashtra
4901510816,20.9147874,77.7716192,Gunvant Baba 2 Wheeler Garage,yes,Amravati,Maharashtra
4903518206,20.952968,77.7497936,Gupta Eggs Store,convenience,Amravati,Maharashtra
4901709456,20.9198654,77.7618314,Gupta Provisions,general,Amravati,Maharashtra
4903525477,20.948339,77.755217,Gupta Sadi Centre,convenience,Amravati,Maharashtra
4901693235,20.9204607,77.7605502,Guptaji Sev Parmal Bhandar Namkeen Shop,yes,Amravati,Maharashtra
4905163558,20.8954426,77.7441943,Gurukrupa Enterprises,convenience,Amravati,Maharashtra
4901580286,20.9292273,77.7533493,Gurunanak Hosiery Depot,convenience,Amravati,Maharashtra
4903509598,20.9575092,77.7572903,Gymkhana,convenience,Amravati,Maharashtra
4901770218,20.9519459,77.7393444,HAJI TRADERS,convenience,Amravati,Maharashtra
4903546894,20.9465054,77.7588943,HASSONJEE TYRES MRF T&S FRANCISEE,convenience,Amravati,Maharashtra
4900969004,20.9302276,77.7616133,HDB Financial Services,convenience,Amravati,Maharashtra
4903733752,20.9256586,77.7421309,HVPM Athletic Ground,garden_centre,Amravati,Maharashtra
4903589224,20.9425575,77.762357,Hari Om Hardwares,convenience,Amravati,Maharashtra
4900874096,20.9314734,77.7509905,Harikrushna Dress Material,convenience,Amravati,Maharashtra
4901022074,20.9346629,77.7556372,Hariom Fibre,convenience,Amravati,Maharashtra
4905182774,20.9069137,77.7475283,Hariom Furniture,supermarket,Amravati,Maharashtra
4901243416,20.9325155,77.7536862,Hindustan Dry Fruit Center,convenience,Amravati,Maharashtra
4905625289,20.91738,77.7426962,Hynix Computer Computer Store,yes,Amravati,Maharashtra
4905167660,20.8985522,77.7465519,I.R T-Shirt Point,convenience,Amravati,Maharashtra
4900969383,20.9300598,77.7613612,ICICI Lombard General Insurance Co,convenience,Amravati,Maharashtra
4901793123,20.9536693,77.7407552,Iliyas Kirana Shop,convenience,Amravati,Maharashtra
4903579025,20.9438726,77.7614317,Indu Sabzi Bhandar,convenience,Amravati,Maharashtra
4899423228,20.9518986,77.7618906,Inuka Plaza,convenience,Amravati,Maharashtra
4901274479,20.9330179,77.7503796,Itwara Market,supermarket,Amravati,Maharashtra
4901273573,20.9331156,77.7513694,Itwara Sabzi Mandi,supermarket,Amravati,Maharashtra
4903791978,20.9244097,77.7536073,J.C. Super Shoppe,supermarket,Amravati,Maharashtra
4900941688,20.9291025,77.7565904,J.K.Sons,convenience,Amravati,Maharashtra
4903176000,20.9424031,77.7432839,J.V.Dhorajiwala,convenience,Amravati,Maharashtra
4903778253,20.9214058,77.7481866,J.V.Dhorajiwala,convenience,Amravati,Maharashtra
4903541601,20.9237621,77.7638504,JAI BAJRANG VASTU BHANDAR,supermarket,Amravati,Maharashtra
4903763965,20.9227036,77.747905,JATARIYA SUPER SHOP,convenience,Amravati,Maharashtra
4899612996,20.9296616,77.7530513,JD Mall,supermarket,Amravati,Maharashtra
4905230218,20.9189584,77.7485945,Jag Shanti Complex,mall,Amravati,Maharashtra
4903541589,20.9255587,77.7672001,Jai Hari Complex,mall,Amravati,Maharashtra
4901612921,20.9283429,77.7505115,Jai Photo Studio & Lab,convenience,Amravati,Maharashtra
4903780346,20.921506,77.749643,Jai Sriram Udyan,garden_centre,Amravati,Maharashtra
4903840371,20.8926093,77.7474687,Jaika Motors Pvt,car,Amravati,Maharashtra
4901021547,20.9352065,77.7545616,Jain Plywood Amaravati,convenience,Amravati,Maharashtra
4903850741,20.8946014,77.7401543,Jain Provision & General Stores,convenience,Amravati,Maharashtra
4901246588,20.9323401,77.7528091,Jain Vividh Vastu Bhandar,supermarket,Amravati,Maharashtra
4903585220,20.9428656,77.7610481,Janta Bakery,bakery,Amravati,Maharashtra
4903764363,20.9227437,77.7481437,Jatariya Tel Ghani,convenience,Amravati,Maharashtra
4901696505,20.9634679,77.7491944,Jawre Jewellery Art,convenience,Amravati,Maharashtra
4900929675,20.9297523,77.7551613,Jaylaxmi Garments & Saree Centre,convenience,Amravati,Maharashtra
4901148597,20.9304637,77.754802,John Players,convenience,Amravati,Maharashtra
4903181901,20.9458951,77.7421171,Junaid Kirana Shop,convenience,Amravati,Maharashtra
4901002124,20.9350712,77.7570936,K NAVALKISHOR AND SOND,convenience,Amravati,Maharashtra
4900908385,20.9305966,77.7545444,K-Lounge,convenience,Amravati,Maharashtra
4901005210,20.9355121,77.7574664,K. Nawalkishor & Sons,convenience,Amravati,Maharashtra
4900968802,20.9300071,77.7621766,KARWA HARDWARE,convenience,Amravati,Maharashtra
4901496667,20.9133442,77.7710453,KGN Saloon,yes,Amravati,Maharashtra
4903197328,20.9477989,77.7351889,KGN Transport Office,convenience,Amravati,Maharashtra
4903179799,20.9445174,77.7402208,KHAN BROS. game zone,convenience,Amravati,Maharashtra
4900908380,20.9305164,77.7542681,Kalantri Handloom Centre,convenience,Amravati,Maharashtra
4905625279,20.9165144,77.745985,Kalpana Cloth Stores and Matching Centre,yes,Amravati,Maharashtra
4905184221,20.9091312,77.7466673,Kalpesh Banokar,convenience,Amravati,Maharashtra
4898817248,20.8971486,77.7518198,Kamlapure Provisions,art,Amravati,Maharashtra
4901253735,20.9319317,77.7521546,Karachi Cloth Stores,convenience,Amravati,Maharashtra
4903521234,20.9495088,77.7498901,Karole Jewellery Art,convenience,Amravati,Maharashtra
4905168814,20.8987677,77.7463079,Karwa Wardrobe,convenience,Amravati,Maharashtra
4905143943,20.8837631,77.7453062,"Ketan Hyundai, Amravati",car,Amravati,Maharashtra
4901096214,20.9318521,77.7561978,Khadim's - Amravati,convenience,Amravati,Maharashtra
4901773728,20.9517681,77.7389233,Khan Sweet Mart Dairy & Coldrink,convenience,Amravati,Maharashtra
4900969396,20.9295988,77.7610313,Khandelwal Cement House,convenience,Amravati,Maharashtra
4905167398,20.8980837,77.7472144,Khandelwal Foods,supermarket,Amravati,Maharashtra
4898872367,20.9295915,77.7599587,Khandelwal Wine Shop,convenience,Amravati,Maharashtra
4901242289,20.9334324,77.7546813,Kisaan Vikas Kendra,convenience,Amravati,Maharashtra
4901263291,20.9327384,77.7507465,Kisan Hardware Centre,convenience,Amravati,Maharashtra
4903840370,20.8940376,77.7439067,Krishna General and Ladies Tailor,convenience,Amravati,Maharashtra
4903541596,20.925627,77.7710603,Krunal Kusare Home,mall,Amravati,Maharashtra
4900907494,20.9305139,77.7536056,Krushna Sarees,convenience,Amravati,Maharashtra
4900992296,20.9352992,77.7573323,Kumar Trading Co,convenience,Amravati,Maharashtra
4900884295,20.9321373,77.7508161,Kundan Foot Wear,convenience,Amravati,Maharashtra
4900967545,20.9296113,77.7621739,Kwality Furniture,convenience,Amravati,Maharashtra
4900930923,20.9296915,77.762434,Kwality Steel Furniture,convenience,Amravati,Maharashtra
4899476272,20.911536,77.7555406,LADDHA GRAINS,yes,Amravati,Maharashtra
4901591268,20.9288791,77.7533976,Laddha Mall,supermarket,Amravati,Maharashtra
4905625278,20.9160931,77.7462031,Laxmi Cloth Stores Clothing Store,yes,Amravati,Maharashtra
4900872707,20.9316888,77.7504379,Laxmi Jewellry,convenience,Amravati,Maharashtra
4905625283,20.917167,77.7465219,Laxmi Medical & General,yes,Amravati,Maharashtra
4901617563,20.928601,77.747612,Laxmikant Daily Needs,convenience,Amravati,Maharashtra
4903522978,20.9484267,77.7531571,"Lokhande Tailors, Sanjay Lokhande",convenience,Amravati,Maharashtra
4901776645,20.953008,77.7409778,M.M.Transport Service,convenience,Amravati,Maharashtra
4903174701,20.9406228,77.7444159,M.R. Traders,convenience,Amravati,Maharashtra
4903183821,20.9472478,77.7402744,MADAAR Battery,convenience,Amravati,Maharashtra
4903626217,20.9398719,77.7568255,MM Motors,car,Amravati,Maharashtra
4899545261,20.9381427,77.7664169,MRF Tyres And Garage,convenience,Amravati,Maharashtra
4901620411,20.9289693,77.7446965,Maa Vaishanvi Mobile Repering Sentar,convenience,Amravati,Maharashtra
4903186821,20.9492167,77.7402878,Madrasi Baba Bakery,bakery,Amravati,Maharashtra
4905625275,20.9158987,77.748775,Mahakali Traders,yes,Amravati,Maharashtra
4901192669,20.9317965,77.7536003,Mahalakshmi Collection,clothes,Amravati,Maharashtra
4899483295,20.9093969,77.7569492,Mahalakshmi General Store,yes,Amravati,Maharashtra
4901693848,20.962719,77.7492051,Mahalaxmi Dairy,convenience,Amravati,Maharashtra
4905177765,20.9053427,77.7473512,Mahalaxmi V.I.P Motors,car,Amravati,Maharashtra
4901761730,20.9646125,77.7401088,Mahalle Provision Store,convenience,Amravati,Maharashtra
4900909611,20.9306717,77.7543244,Maharani Sarees,convenience,Amravati,Maharashtra
4903866646,20.8890133,77.7467633,Mahindra First Choice Wheels Limited,convenience,Amravati,Maharashtra
4903806494,20.9204137,77.7541465,Mahindra Showroom,car,Amravati,Maharashtra
4905327896,20.9100994,77.7514331,Manbhari,gift,Amravati,Maharashtra
4901148599,20.9306391,77.7549897,Mangalam,convenience,Amravati,Maharashtra
4905163562,20.8962419,77.7448273,Mangalam Gift Gallery & Jewellery,convenience,Amravati,Maharashtra
4905625314,20.9097004,77.7414474,Manish Kirana & General Stores,yes,Amravati,Maharashtra
4901505096,20.9147373,77.7711284,Mankar Fataka Bandar,yes,Amravati,Maharashtra
4899320490,20.9088792,77.7519139,Maruti,yes,Amravati,Maharashtra
4900985794,20.9343537,77.758636,Marvel Creation,convenience,Amravati,Maharashtra
4901335071,20.9321349,77.7493361,Marwadi Stores,general,Amravati,Maharashtra
4899433276,20.9509868,77.7623626,Mathura Dairy,convenience,Amravati,Maharashtra
4901495381,20.912818,77.7699563,Matoshri Phataka,yes,Amravati,Maharashtra
4901767646,20.9578423,77.7470021,Mauli Food Store,convenience,Amravati,Maharashtra
4905162327,20.8970162,77.7377516,Mayuri General Stores,convenience,Amravati,Maharashtra
4901681914,20.9227057,77.7590244,Meat Shop Belpura,butcher,Amravati,Maharashtra
4899600981,20.9296266,77.7555592,Menghani Traders,convenience,Amravati,Maharashtra
4901012086,20.9352341,77.7565464,Mens Style,convenience,Amravati,Maharashtra
4901730961,20.918968,77.7588579,Mewa Shop,yes,Amravati,Maharashtra
4900938147,20.9293956,77.7558126,Milind Enterprises,convenience,Amravati,Maharashtra
4900998249,20.9352842,77.7572331,Miron Creation,convenience,Amravati,Maharashtra
4903412303,20.945131,77.7706763,Miss Fashhion,convenience,Amravati,Maharashtra
4903631561,20.9405457,77.7588774,Mitesh Traders,convenience,Amravati,Maharashtra
4900970301,20.929679,77.7632253,Modern Electricals and Electronics,convenience,Amravati,Maharashtra
4900946610,20.9286916,77.7565287,Modern Trading Center,convenience,Amravati,Maharashtra
4901023783,20.9352441,77.7555567,Mohan Oil Mill,convenience,Amravati,Maharashtra
4900887357,20.9320446,77.7504406,Mohini Novelty,supermarket,Amravati,Maharashtra
4901589065,20.9292098,77.7535987,Mom & Me,convenience,Amravati,Maharashtra
4901602907,20.9284231,77.7526975,Monteena Fashion,convenience,Amravati,Maharashtra
4900906503,20.9311552,77.7541823,Mother's Choice,convenience,Amravati,Maharashtra
4900915555,20.9304437,77.7539463,Mulchand M.Gvaalani,convenience,Amravati,Maharashtra
4905180049,20.9048866,77.7479279,Mundhada Automotive,car_repair,Amravati,Maharashtra
4901032505,20.9349485,77.7552992,Mundhada Steel & Cement,convenience,Amravati,Maharashtra
4900988293,20.9344238,77.7595829,Murli Tyres & Alignment Center,convenience,Amravati,Maharashtra
4903223993,20.9398127,77.7359562,Musaib Elactrik,convenience,Amravati,Maharashtra
4903520057,20.949877,77.7500913,My Idea Store,convenience,Amravati,Maharashtra
4903518259,20.9530782,77.7508289,NAWED MOBILE SHOP,convenience,Amravati,Maharashtra
4901498274,20.9367419,77.7421668,NS Tailors Shope,convenience,Amravati,Maharashtra
4899597236,20.9299873,77.7553822,Nanda Saree Centre,convenience,Amravati,Maharashtra
4901048474,20.9327039,77.7562353,Nathalal Ramchand,convenience,Amravati,Maharashtra
4900924441,20.9296746,77.7541045,Navjivan Textiles,convenience,Amravati,Maharashtra
4901008497,20.9354896,77.7565894,Navjiwan Sales Co,convenience,Amravati,Maharashtra
4903209668,20.9432822,77.7269708,Nawaz Mobile Shop,convenience,Amravati,Maharashtra
4905176456,20.9038042,77.7477053,New Akarshan Glass Art & Aluminium Windows,convenience,Amravati,Maharashtra
4903346659,20.9299174,77.7500779,New Almas Hosiery,clothes,Amravati,Maharashtra
4901003538,20.9354395,77.756592,New Chawla General & Bits,convenience,Amravati,Maharashtra
4901886513,20.946633,77.7571943,New Cotton Market,supermarket,Amravati,Maharashtra
4903780008,20.921025,77.7484065,New Gupta Bandhu,supermarket,Amravati,Maharashtra
4905625301,20.9136447,77.7485838,New Pateriya Provisions,yes,Amravati,Maharashtra
4901570818,20.9258366,77.7551989,New Tanu Soapes & General Stores,general,Amravati,Maharashtra
4903179802,20.9450134,77.7425462,Nice Bed Center,convenience,Amravati,Maharashtra
4901709455,20.9196654,77.7618366,Nikhil,general,Amravati,Maharashtra
4901694143,20.9202363,77.7600516,Nirmal Kirana,yes,Amravati,Maharashtra
4905183771,20.9070149,77.7576543,Nitin Grocery (Kirana) Store Indian Grocery Store,supermarket,Amravati,Maharashtra
4901773168,20.9538121,77.7379148,Niyaj Hardware,convenience,Amravati,Maharashtra
4901581229,20.9281928,77.7537503,Nokia Care,mobile_phone,Amravati,Maharashtra
4903179584,20.9438611,77.7415297,Noor General Stores,convenience,Amravati,Maharashtra
4900893182,20.9322525,77.7503387,Noorani Dry Fruits,convenience,Amravati,Maharashtra
4903237999,20.9414009,77.7417122,Novelty Advertising,convenience,Amravati,Maharashtra
4903172965,20.9401619,77.7441879,Novelty Stores,convenience,Amravati,Maharashtra
4899625705,20.9308566,77.7506937,ORION MALL C,supermarket,Amravati,Maharashtra
4899536967,20.9396382,77.7690374,Old Audotorium PDMC,music,Amravati,Maharashtra
4903452002,20.9472853,77.7728998,Om Car Spa,car_repair,Amravati,Maharashtra
4899473325,20.9150635,77.7555621,Om Collection,clothes,Amravati,Maharashtra
4903806833,20.9202759,77.754522,Om Dryfruit Corner,convenience,Amravati,Maharashtra
4900938053,20.9296261,77.7559145,Om Furnishing,convenience,Amravati,Maharashtra
4901761737,20.919831,77.7633782,Om Tel Bhandar,yes,Amravati,Maharashtra
4905177607,20.9049643,77.7472466,Omkara Services,car,Amravati,Maharashtra
4905235524,20.9166263,77.7487966,"Opposite Shivaji Comm Complex, Ravi Nagar Chowk, Sharda Viha",supermarket,Amravati,Maharashtra
4901068796,20.9327039,77.7570507,P.H. Kedia & Sons,convenience,Amravati,Maharashtra
4903787075,20.9242519,77.753087,PN Gadgil and sons,supermarket,Amravati,Maharashtra
4903227165,20.9369168,77.7375119,Pakiza Bakery,bakery,Amravati,Maharashtra
4901622588,20.9291747,77.7431086,Pandey Kirana Stores,convenience,Amravati,Maharashtra
4903844191,20.8945864,77.7360264,Patil Provsion,supermarket,Amravati,Maharashtra
4901601732,20.9271154,77.7519813,Patil's Corner,supermarket,Amravati,Maharashtra
4900938140,20.9296762,77.7559923,Plywood Center,convenience,Amravati,Maharashtra
4903541594,20.9266789,77.769304,Pooja Provisions,general,Amravati,Maharashtra
4903589083,20.9428581,77.7650714,Pooja play station,convenience,Amravati,Maharashtra
4899454269,20.9463126,77.7658334,Poonam's Photoshop,convenience,Amravati,Maharashtra
4901519509,20.9162507,77.7721388,Prajwal Pan Mandir,yes,Amravati,Maharashtra
4901256271,20.9316537,77.7514465,Prakash Caps Hosiery Depot,convenience,Amravati,Maharashtra
4900864892,20.9310024,77.7505345,"Praveen Bajaranglalji Agrawal, Amravati, Maharashtra, IndiaSearch Google MapsDirectionsA.K. Bag House",convenience,Amravati,Maharashtra
4900862522,20.9312379,77.7501617,"Praveen Bajaranglalji Agrawal, Amravati, Maharashtra, IndiaSearch Google MapsDirectionsShri Arihant Traders",convenience,Amravati,Maharashtra
4898713786,20.8642396,77.7385326,Pravin Kinrana Store,supermarket,Amravati,Maharashtra
4899604786,20.9301727,77.7545668,Princess,convenience,Amravati,Maharashtra
4900988513,20.935238,77.7604975,Pritisudha Natural Products,supermarket,Amravati,Maharashtra
4899558843,20.9334581,77.7585929,Punam Electronics,convenience,Amravati,Maharashtra
4901019278,20.9356624,77.7571151,Purva Creation,convenience,Amravati,Maharashtra
4900948065,20.9289472,77.7584384,Pushparpan Enterprises,convenience,Amravati,Maharashtra
4899555551,20.9337187,77.7600038,R K Plaza,convenience,Amravati,Maharashtra
4903221797,20.9268271,77.7641425,R.S General store,general,Amravati,Maharashtra
4901776644,20.9567953,77.7365388,RK. Junun Auto Deal,convenience,Amravati,Maharashtra
4903217175,20.9392691,77.7333652,ROYAL ENTERPRISE,convenience,Amravati,Maharashtra
4903221798,20.9270976,77.7636865,RS Family Mart,mall,Amravati,Maharashtra
4899614599,20.9290879,77.752649,RadhaSwami General Store,convenience,Amravati,Maharashtra
4903853365,20.8943509,77.7404708,Radhe Radhe Dudha Dairy,convenience,Amravati,Maharashtra
4903176203,20.8936217,77.7548177,Rafik Kirana Store,yes,Amravati,Maharashtra
4899458237,20.9456839,77.7663645,Raghuvir,convenience,Amravati,Maharashtra
4899615707,20.9293109,77.752523,"Raghuvir Sweets ,Namkin & Bakery Product",convenience,Amravati,Maharashtra
4901212011,20.9323426,77.7552392,Raj Milk,convenience,Amravati,Maharashtra
4900984404,20.9343887,77.7572896,Rajkumar Hosiery Depot,convenience,Amravati,Maharashtra
4901275661,20.9328951,77.7500846,Ramesh Bakery,bakery,Amravati,Maharashtra
4903894855,20.9263882,77.7744642,Rana complex,mall,Amravati,Maharashtra
4900945221,20.9289221,77.7566709,Rangeeli Creations,convenience,Amravati,Maharashtra
4901129077,20.930106,77.7559322,Rangroop Fashions,convenience,Amravati,Maharashtra
4903643533,20.9348836,77.7539039,Rashmi Treders,supermarket,Amravati,Maharashtra
4901617055,20.9283655,77.7476174,Ravindra Kirana Store,convenience,Amravati,Maharashtra
4900979977,20.9337925,77.7584376,Rekha Gas And Domestic Appliances,convenience,Amravati,Maharashtra
4899424049,20.9518485,77.7618396,Reliance Digital mini Xpress,convenience,Amravati,Maharashtra
4901604990,20.9286937,77.7509272,Reliance Trends,supermarket,Amravati,Maharashtra
4900913072,20.9307895,77.7540455,Rocky Fashion,convenience,Amravati,Maharashtra
4901582424,20.9275488,77.7535343,Rohit Dairy,convenience,Amravati,Maharashtra
4903808114,20.9204813,77.7548975,Rohit Wine Shop,alcohol,Amravati,Maharashtra
4898773989,20.8663888,77.7369427,"Roshni General Stores,Badnera",convenience,Amravati,Maharashtra
4903548377,20.9457739,77.7584222,Roshni Sarees,convenience,Amravati,Maharashtra
4903223539,20.9374379,77.737587,Royal Aluminium,convenience,Amravati,Maharashtra
4903227189,20.9366087,77.737072,Royal Aqua,convenience,Amravati,Maharashtra
4903170916,20.9397561,77.7447002,Royal Perfume,convenience,Amravati,Maharashtra
4903176388,20.9474582,77.740886,Royal Radium Arts,convenience,Amravati,Maharashtra
4901761735,20.9200553,77.7633207,Rudrani Patanjali,yes,Amravati,Maharashtra
4901061184,20.9327615,77.7565786,S K Tyres,convenience,Amravati,Maharashtra
4901029913,20.9349184,77.7547252,S.S. Corporation,convenience,Amravati,Maharashtra
4901613828,20.928145,77.7513054,SARIKA FASHIONS,convenience,Amravati,Maharashtra
4901118606,20.9304642,77.7560502,SHRI RAM TRADERS,convenience,Amravati,Maharashtra
4903894845,20.9239826,77.7710529,SIDDHARTHA ENTERPRISES,general,Amravati,Maharashtra
4899359249,20.9610922,77.767568,SSB Traders Amravati,convenience,Amravati,Maharashtra
4900863721,20.9311602,77.7501402,Sagar Novelty,books,Amravati,Maharashtra
4903781341,20.9194516,77.7482724,Sagar Provision,convenience,Amravati,Maharashtra
4903853375,20.8943408,77.7410421,Saharkar Provisions,supermarket,Amravati,Maharashtra
4903541586,20.9269813,77.7660806,Sai Ashirvad General Store General Store,general,Amravati,Maharashtra
4903666934,20.9438433,77.7576312,Sai Cars,supermarket,Amravati,Maharashtra
4899544009,20.9383732,77.7665752,Sai Corner,convenience,Amravati,Maharashtra
4903855499,20.8944962,77.7431155,Sai Krupa Auto Centre,car_repair,Amravati,Maharashtra
4905162676,20.8966203,77.7440119,Sai Puja Samagari (Amit) Amravati,convenience,Amravati,Maharashtra
4899547779,20.9372158,77.7661031,Saint Dnyaneshwar Sanskrutik Bhavan,music,Amravati,Maharashtra
4903636499,20.9362595,77.7560879,Sairaj Market,convenience,Amravati,Maharashtra
4903175083,20.9393853,77.743807,Sajid Daily Needs,convenience,Amravati,Maharashtra
4903225800,20.9376533,77.7371739,Sajid Kirana,convenience,Amravati,Maharashtra
4900914970,20.9305239,77.7541367,Sakshi Sarees,convenience,Amravati,Maharashtra
4901524505,20.9155621,77.7730144,Sakshi Shrungar,yes,Amravati,Maharashtra
4903177511,20.9422278,77.7433885,Samar Super Shop,supermarket,Amravati,Maharashtra
4903541593,20.9264681,77.7692532,Samarth Krupa Complex Shopping Mall,mall,Amravati,Maharashtra
4901187421,20.9315685,77.7535655,Samata Paridhan,convenience,Amravati,Maharashtra
4903208443,20.9263761,77.7617661,Samrudhi Complex,mall,Amravati,Maharashtra
4900916589,20.9304638,77.754413,Samsung Smarthome,convenience,Amravati,Maharashtra
4903175758,20.943851,77.7419857,Saniya Super Shop,supermarket,Amravati,Maharashtra
4903177222,20.9385704,77.7429352,Sanjari Kirana Shop,convenience,Amravati,Maharashtra
4901615049,20.9289192,77.7449486,Sant Lahanuji Hair Salon,hairdresser,Amravati,Maharashtra
4903466676,20.9466819,77.7696636,Sant Mauli Dudh Dairy,supermarket,Amravati,Maharashtra
4898880492,20.9292307,77.7591077,Saraswati Book Depot,books,Amravati,Maharashtra
4900947833,20.9292027,77.7591466,Saraswati Book Depot,convenience,Amravati,Maharashtra
4900906452,20.9311602,77.7535976,Sarthi,convenience,Amravati,Maharashtra
4901040695,20.9343022,77.7549854,Satguru Treders,convenience,Amravati,Maharashtra
4905163557,20.8957833,77.7442586,Saurabh Constructions and Developers,convenience,Amravati,Maharashtra
4905625317,20.9109364,77.7446883,Sawli Provisions,yes,Amravati,Maharashtra
4899443221,20.9473998,77.7645781,Shaan Honda,convenience,Amravati,Maharashtra
4903182210,20.9453415,77.7415753,Shams Agency,convenience,Amravati,Maharashtra
4903176001,20.9426637,77.7431551,Shan General And Gift Center,gift,Amravati,Maharashtra
4903550990,20.9451051,77.7605948,Shankar Udyan,garden_centre,Amravati,Maharashtra
4900872672,20.931779,77.7502877,Sharda General Stores,convenience,Amravati,Maharashtra
4905230217,20.9183865,77.7486441,Sharda Provisions,supermarket,Amravati,Maharashtra
4900943344,20.9290273,77.7561317,Sharekhan,convenience,Amravati,Maharashtra
4903179801,20.9443345,77.7428654,Shayaan Xerox Center,convenience,Amravati,Maharashtra
4901501804,20.9135998,77.7742934,Shiv Caterers Amravati,yes,Amravati,Maharashtra
4903589809,20.9424373,77.7624804,Shiv Dhudh Dairy,bakery,Amravati,Maharashtra
4905179367,20.9058012,77.7463052,Shiv Int.Fruit Products(Anand Sagar Packaged Drinking Water),convenience,Amravati,Maharashtra
4900949623,20.9290173,77.7585457,Shiv Marketing,convenience,Amravati,Maharashtra
4898808714,20.8982171,77.7505509,Shiv Sales,books,Amravati,Maharashtra
4901501004,20.9144416,77.7714154,Shiv Tiles,yes,Amravati,Maharashtra
4905235522,20.9169273,77.7492075,Shivaji Commercial Centre,mall,Amravati,Maharashtra
4901085919,20.9316767,77.756635,Shivam Marketing Services,convenience,Amravati,Maharashtra
4903629838,20.9396439,77.7581613,Shlok Agencies,convenience,Amravati,Maharashtra
4901752587,20.9633001,77.7398084,Shopping Mall,supermarket,Amravati,Maharashtra
4901597058,20.927892,77.7527002,Showman Fashion,convenience,Amravati,Maharashtra
4900861968,20.9313581,77.7502877,Shradha Jewellery House,convenience,Amravati,Maharashtra
4903727440,20.9174619,77.7565748,Shram Shakti Complex,mall,Amravati,Maharashtra
4901252421,20.9322249,77.7525891,Shree Ambey General & Dryfruit Store,convenience,Amravati,Maharashtra
4905625307,20.9118576,77.7400202,Shree Balaji Electricals,yes,Amravati,Maharashtra
4903471061,20.9480181,77.7680907,Shree Collections,supermarket,Amravati,Maharashtra
4900992080,20.9356213,77.7595829,Shree Gajanan Hair Saloon,hairdresser,Amravati,Maharashtra
4898767621,20.8633812,77.7355641,Shree Gajanan Mobile,gift,Amravati,Maharashtra
4899384934,20.9603176,77.7725827,Shree Ganesh Provision,convenience,Amravati,Maharashtra
4899482300,20.9108913,77.7572677,Shree Mahalaxmi All Bike Ripearing & Servies Center,yes,Amravati,Maharashtra
4903221796,20.9263711,77.7640406,Shree Mahalaxmi Nari Shrungar,clothes,Amravati,Maharashtra
4903767503,20.9243471,77.7487686,Shree Samarth General Stores,convenience,Amravati,Maharashtra
4901011927,20.9353268,77.756592,Shree Sant Shirdiwala Garments,convenience,Amravati,Maharashtra
4901041817,20.9341067,77.7550605,Shree Tirupati Courier Service Pvt,convenience,Amravati,Maharashtra
4901704966,20.964049,77.7509351,ShreeHit Creations,convenience,Amravati,Maharashtra
4903541606,20.9250874,77.762292,Shreerang Daily Needs,general,Amravati,Maharashtra
4901524507,20.9159305,77.773304,Shreyash Ice Cream,yes,Amravati,Maharashtra
4903494778,20.9537569,77.763009,Shri Ambe Icecream,supermarket,Amravati,Maharashtra
4901035717,20.9344449,77.755436,Shri Gajanan Agrotech,convenience,Amravati,Maharashtra
4900916564,20.930311,77.7542225,Shri Gajanan Sarees,convenience,Amravati,Maharashtra
4899359729,20.9608392,77.7672837,Shri Ramdev Marble Traders,convenience,Amravati,Maharashtra
4901761736,20.9200114,77.7635191,Shri Ranisati Kirana,yes,Amravati,Maharashtra
4903855324,20.8944386,77.7425522,Shriji Bags,convenience,Amravati,Maharashtra
4900988548,20.9351428,77.7596982,Shrikrishnapeth Garden,garden_centre,Amravati,Maharashtra
4903846627,20.8949573,77.7353156,Shrikrushna Traders,convenience,Amravati,Maharashtra
4903727429,20.9203597,77.7560339,Shriram Super Market,yes,Amravati,Maharashtra
4899417061,20.9540703,77.7675447,Shubham Flour Mill,convenience,Amravati,Maharashtra
4901335271,20.9097571,77.7713304,Shubhangi Cloths,clothes,Amravati,Maharashtra
4900970302,20.9298067,77.7627666,Siba Electronics,convenience,Amravati,Maharashtra
4900876655,20.9315435,77.7513311,Sindh Bag & Baby House,convenience,Amravati,Maharashtra
4901331108,20.9320056,77.7494175,Sindh Dryfruit Centre,supermarket,Amravati,Maharashtra
4901017864,20.9347531,77.7567476,Sindh Garments,convenience,Amravati,Maharashtra
4901073155,20.9315114,77.7563721,Somani Lifestyle,convenience,Amravati,Maharashtra
4899635037,20.9309042,77.7518095,Soni House of Fashion,convenience,Amravati,Maharashtra
4899507005,20.9376859,77.7790309,Special Biochem Pvt,convenience,Amravati,Maharashtra
4899572073,20.9316644,77.7555835,Spykar Jeans,convenience,Amravati,Maharashtra
4900957445,20.9285641,77.7593951,Star Auto Centre,car_repair,Amravati,Maharashtra
4901682717,20.9602845,77.7531479,Sudhir DryFruits,convenience,Amravati,Maharashtra
4903894842,20.9238574,77.7696743,Sujata Medical & General Stores,hindu,Amravati,Maharashtra
4901501005,20.9145719,77.7715173,Sumithra Steel And Gift Cente,yes,Amravati,Maharashtra
4901792000,20.9538672,77.7410368,Sun Fabrication,convenience,Amravati,Maharashtra
4901013570,20.9348859,77.7558786,"Sunil Traders, Amravati",convenience,Amravati,Maharashtra
4901015222,20.9351163,77.7568442,Sunita Sarees,convenience,Amravati,Maharashtra
4903523926,20.948344,77.7539188,Sunlight Photography & film,convenience,Amravati,Maharashtra
4901505095,20.9148124,77.7712893,Sunrise Alu.& glass,yes,Amravati,Maharashtra
4903177867,20.9450534,77.7421573,Super Kirana & General Store,convenience,Amravati,Maharashtra
4903850714,20.8943634,77.7403501,Super Vision Computer,convenience,Amravati,Maharashtra
4900984408,20.9342735,77.7573083,Suresh Traders,convenience,Amravati,Maharashtra
4899567488,20.9335683,77.7570346,Surya Wine Shop,alcohol,Amravati,Maharashtra
4898979894,20.931339,77.7786902,Suvidha Traders,convenience,Amravati,Maharashtra
4900981212,20.9354996,77.7572143,Suyog Fashion,convenience,Amravati,Maharashtra
4898979282,20.9307778,77.7778909,Sweety Enterprises Xerox And Stationary,convenience,Amravati,Maharashtra
4905162677,20.8969911,77.7442211,Sysnet Global Technologies,convenience,Amravati,Maharashtra
4898814272,20.8960841,77.7500847,TAPKING TRADING LLP 5.0·4 reviews,art,Amravati,Maharashtra
4899441747,20.919525,77.7544238,TTR Honda Motors,yes,Amravati,Maharashtra
4899464536,20.9119856,77.7526526,TTR Honda Motors,yes,Amravati,Maharashtra
4903241372,20.9364559,77.7414279,Taiba Perfume,convenience,Amravati,Maharashtra
4903855758,20.8924013,77.7472192,Tata Motors,car,Amravati,Maharashtra
4899641118,20.9307289,77.75362,The Arvind Store,convenience,Amravati,Maharashtra
4901045182,20.9341844,77.7550417,The Professional Couriers,convenience,Amravati,Maharashtra
4899090689,20.9292342,77.7928392,Thunder World IceCream Parlour,convenience,Amravati,Maharashtra
4901192795,20.9322499,77.7549817,Tirupati Electronic & Electrical Agencies,convenience,Amravati,Maharashtra
4901524506,20.9156858,77.7732208,Tirupati Jewellery Art,yes,Amravati,Maharashtra
4905626221,20.9102559,77.7477608,Toy Library 1.0·1 re,yes,Amravati,Maharashtra
4899413575,20.9576546,77.7652701,Transline Packers And Movers Amravati,convenience,Amravati,Maharashtra
4901519504,20.9161178,77.7721105,Trishul Medicals,yes,Amravati,Maharashtra
4905175681,20.9040823,77.7495587,True Value,car,Amravati,Maharashtra
4903859156,20.8944536,77.7443815,UNITED COMPUTER,convenience,Amravati,Maharashtra
4901187057,20.9314157,77.7535386,Ujala Fashion,convenience,Amravati,Maharashtra
4905179227,20.9055932,77.7468953,V.I.P Motors,car,Amravati,Maharashtra
4905182045,20.9061194,77.7480513,VIDARBHA MATADAR,convenience,Amravati,Maharashtra
4901501003,20.914156,77.7712545,VIjay Saree Center,yes,Amravati,Maharashtra
4903523943,20.9478656,77.7545223,Vaishnavi Fashion Wear & Ganesh Ladies Taylor,convenience,Amravati,Maharashtra
4900914969,20.9278488,77.7546727,Vashanavi Saree Center,convenience,Amravati,Maharashtra
4903216340,20.9257047,77.7634934,Veerbhadra Complex,general,Amravati,Maharashtra
4901416005,20.9333826,77.7462384,Vidarbh General Stores,general,Amravati,Maharashtra
4899343670,20.9088312,77.7543656,Viganharata General Stores,yes,Amravati,Maharashtra
4903624879,20.9400598,77.7571742,Vijay Provision,convenience,Amravati,Maharashtra
4899003722,20.9295503,77.7879304,Vimal Gade Karkhana And Furnishing,convenience,Amravati,Maharashtra
4900875566,20.9314583,77.751492,Vimal Hosiery Depo,convenience,Amravati,Maharashtra
4900895217,20.9316362,77.7524442,Vinay Dryfruits,convenience,Amravati,Maharashtra
4898937862,20.931978,77.7698656,Vinod Doodh Dairy,convenience,Amravati,Maharashtra
4901519507,20.9162748,77.7722202,Vinod Uphar Gruh,yes,Amravati,Maharashtra
4900907993,20.9304563,77.7537531,Vishal Fashion,convenience,Amravati,Maharashtra
4900905125,20.9311903,77.7533723,Vishalata,convenience,Amravati,Maharashtra
4903789746,20.923826,77.7525666,Visitfresh,supermarket,Amravati,Maharashtra
4903894854,20.9264602,77.7742121,Vodafone Globel Communication,yes,Amravati,Maharashtra
4903541602,20.9240427,77.7639792,Vodafone Mini Store,mobile_phone,Amravati,Maharashtra
4898967028,20.9318751,77.7773169,Vodafone Mini store,convenience,Amravati,Maharashtra
4901239977,20.9328436,77.7549414,Vyankatesh Krushi Kendra,convenience,Amravati,Maharashtra
4900880854,20.9319218,77.7502743,Vyas Stores,convenience,Amravati,Maharashtra
4899091479,20.9279214,77.7931772,Wadali Garden,garden_centre,Amravati,Maharashtra
4901532922,20.9169338,77.7747676,Wagh provisions,grocery,Amravati,Maharashtra
4903172735,20.9399314,77.744609,Wali Roadlines,car_repair,Amravati,Maharashtra
4903894844,20.9247092,77.7708705,Wankhade Enterprises,general,Amravati,Maharashtra
4901347384,20.9315563,77.7458846,Watch Store,convenience,Amravati,Maharashtra
4901092502,20.9321978,77.756643,Wrangler,convenience,Amravati,Maharashtra
4903182048,20.9450033,77.7414948,Yaseen Refrigeration,convenience,Amravati,Maharashtra
4901246144,20.9325931,77.7533214,Yogesh Dudh Dairy,convenience,Amravati,Maharashtra
4901077322,20.9314162,77.7565438,Yuvraj Men's Wear & Shoes,convenience,Amravati,Maharashtra
4898702153,20.8652009,77.7368051,Zafarkalim House,supermarket,Amravati,Maharashtra
4903175494,20.9392901,77.7432571,Zakir Bal Udyan,garden_centre,Amravati,Maharashtra
4901789155,20.9533386,77.7407767,Zamzam Milk Dairy,bakery,Amravati,Maharashtra
4903179262,20.8930514,77.7568013,amravti city maharastra,yes,Amravati,Maharashtra
4903183620,20.9473805,77.740607,apani bekary,bakery,Amravati,Maharashtra
4903183093,20.9451461,77.7393866,city mobile shop,convenience,Amravati,Maharashtra
4903664462,20.9420643,77.7575096,deepika provision,supermarket,Amravati,Maharashtra
4905175707,20.9037791,77.7492717,iCerebro Technology Pvt. Ltd,supermarket,Amravati,Maharashtra
4899558717,20.9334807,77.7587673,idea,convenience,Amravati,Maharashtra
4903173450,20.9435755,77.7408752,kohinoor kirana,convenience,Amravati,Maharashtra
4903181899,20.9455344,77.7410335,national borwells,convenience,Amravati,Maharashtra
4903187288,20.9511279,77.7391559,opera mobile,convenience,Amravati,Maharashtra
4903517320,20.953206,77.7504668,sadgurumaulee vividh seva kendra,supermarket,Amravati,Maharashtra
4903541588,20.9259042,77.7657528,sarvadnay general store,general,Amravati,Maharashtra
4903431970,20.941088,77.7658832,uday interior,convenience,Amravati,Maharashtra
4900982619,20.9345541,77.7570187,vyas tvs,bicycle,Amravati,Maharashtra
6620534785,31.622265,74.8794535,Bansal Collection,clothes,Amritsar,Punjab
6623327903,31.6266991,74.8781664,CD Mehra & Sons Book Sellers & Publishers,books,Amritsar,Punjab
5385183122,31.623247,74.8792556,Dharam Singh Market,mall,Amritsar,Punjab
2592595799,31.641883,74.8836905,EasyDay,supermarket,Amritsar,Punjab
6623686694,31.6248902,74.8784452,Hotel Ishita Inn,ticket,Amritsar,Punjab
6620534585,31.6223325,74.8794366,New Dry Fruit Corner,gift,Amritsar,Punjab
4340869190,31.6188543,74.878302,Northern Railway Ticket Counter,ticket,Amritsar,Punjab
2592595803,31.6415615,74.8754271,Novelty Sweets,confectionery,Amritsar,Punjab
6623296095,31.6266597,74.878194,Odeon cards;Refresher Book Depot,stationery;books,Amritsar,Punjab
6620496088,31.6248744,74.8785648,Palak Punjabi Jutti,shoes,Amritsar,Punjab
6853582788,31.6464435,74.8879586,Royal Collection,interior_decoration,Amritsar,Punjab
7279350166,31.6244849,74.8787247,Surinder General Store,convenience,Amritsar,Punjab
2592595812,31.6403302,74.8782442,Ticket Office,ticket,Amritsar,Punjab
7276255052,31.6255222,74.8790226,Tickets Partition Museum,ticket,Amritsar,Punjab
7279356912,31.6278525,74.8826208,Wine Shop,alcohol,Amritsar,Punjab
7279361671,31.6273582,74.8830042,Wine Shop,alcohol,Amritsar,Punjab
2592595813,31.6392681,74.8906457,Woodlands,shoes,Amritsar,Punjab
4294695453,21.211669,72.7917835,New Upkar Bakery,bakery,Amroli,Gujarat
7035722724,21.2301237,72.866075,Onyx For men,clothes,Amroli,Gujarat
6181668041,21.2363284,72.8753244,Style on World Garments,clothes,Amroli,Gujarat
4294695451,21.2107188,72.7914482,Vodafone Store,mobile_phone,Amroli,Gujarat
6897844571,8.6288871,77.0011789,TA provision Store (Bakery and Grocery),bakery,Anad,Kerala
4949292769,9.4522665,77.7913797,Sri Kaliswari Le Orchids,mall,Anaiyur,Tamil Nadu
3382357930,16.557845,77.011243,Public Distribution Shop,convenience,Anakasugur,Karnataka
7321074313,9.5621787,76.7917898,Barkath Traders,general,Anakkal,Kerala
7321062593,9.5607861,76.7964329,Bismi Decoration $ Star Lights,interior_decoration,Anakkal,Kerala
7321062592,9.5609232,76.7964359,Bismi Decoration And Hiring Service,general,Anakkal,Kerala
7321061184,9.5612691,76.7920946,Diana Beauty clinic,beauty,Anakkal,Kerala
3285315203,9.5617314,76.7724489,Indus Maruti Suzuki,car,Anakkal,Kerala
7321075188,9.5625013,76.7926621,Jas metal and wood industries,general,Anakkal,Kerala
7321061182,9.5613748,76.7917895,Karippans,tea,Anakkal,Kerala
7321061183,9.5615685,76.7920464,Reliance Trends,clothes,Anakkal,Kerala
6908244175,9.5825093,76.7850654,Remya Stores and Bakery,stationery,Anakkal,Kerala
7321055248,9.5606499,76.7971912,Rubber Point,general,Anakkal,Kerala
7321055249,9.5608614,76.7968799,Sai Services,motorcycle_repair,Anakkal,Kerala
7335035574,9.5534662,76.7904033,Sharon Travels,travel_agency,Anakkal,Kerala
7335033527,9.5580998,76.7919044,Zee Electronics,electronics,Anakkal,Kerala
7334515993,9.5599646,76.7936561,kottaram bakery,bakery,Anakkal,Kerala
7334504511,9.5581746,76.7921924,pulpel textiles,clothes,Anakkal,Kerala
2579014426,22.55834,72.9620994,BigBajar,supermarket,Anand,Gujarat
7329552326,22.5608683,72.9468611,FARM CLUSTER,supermarket,Anand,Gujarat
4400923391,22.5590124,72.9651861,Radhasoami Tours,travel_agency,Anand,Gujarat
4405620789,22.5591645,72.9651396,Sohang Digital Studio,photo,Anand,Gujarat
5923631348,10.366998,76.2830687,Dixon Stores,supermarket,Anandapuram,Kerala
6837577358,17.7688399,80.8326847,Guru Tailors,tailor,Anandapuram,Telangana
6850830356,17.7689357,80.8321473,Pravallika Fancy Store,electronics,Anandapuram,Telangana
4488089786,14.6811791,77.6093663,City Municipal Vegetable Market,supermarket,Anantapur,Andhra Pradesh
4488061393,14.6826848,77.607653,Kirana Bazar,supermarket,Anantapur,Andhra Pradesh
4488035145,14.6816436,77.6075394,Murali General Stores,supermarket,Anantapur,Andhra Pradesh
4486611586,14.6861958,77.5997849,Reliance Mart,supermarket,Anantapur,Andhra Pradesh
4488073389,14.6776572,77.6039678,Sri Saila Suppliers,supermarket,Anantapur,Andhra Pradesh
4488038814,14.6821914,77.6074076,Star Suppliers,supermarket,Anantapur,Andhra Pradesh
4487960348,14.6773865,77.603628,Subramanswara Supermarkets,supermarket,Anantapur,Andhra Pradesh
4488025497,14.6740564,77.6102567,Vasavi Suppliers,supermarket,Anantapur,Andhra Pradesh
4488039567,14.6784672,77.6082371,Zilani Suppliers,supermarket,Anantapur,Andhra Pradesh
6847212723,17.5129787,78.8827912,Aaradhya Bakery,bakery,Anantharam,Telangana
6850830387,17.5130525,78.8828818,Manisha Xerox and General,general,Anantharam,Telangana
6840090833,17.5109464,78.8814746,"TVS, Sri LV Motors",motorcycle,Anantharam,Telangana
4718543519,33.7258901,75.1532567,Home sweet home,electronics,Anantnag,Jammu and Kashm
7008412175,8.6928116,77.1061755,Kumar store,general,Anappara,Kerala
7008453804,8.7036728,77.1153286,Mamootil Bakery and cool bar,yes,Anappara,Kerala
7008412172,8.6924862,77.1062921,Uttarathil Stores And Bakery,bakery,Anappara,Kerala
7008412174,8.6927633,77.1063491,Vinayakka bakery,bakery,Anappara,Kerala
7106564386,10.2038964,76.2003093,MCU Hyundai,car,Anappuzha,Kerala
4729063184,10.20128,76.203196,Nora Stores,bakery,Anappuzha,Kerala
4729063185,10.2012694,76.2031822,Nora Stores,tea,Anappuzha,Kerala
4729063183,10.2013484,76.2033884,Rose Petals,beauty,Anappuzha,Kerala
4729063181,10.2013322,76.2034187,Zera Stores,tea,Anappuzha,Kerala
6982346027,11.3210342,75.997187,Nafiya Sweets & Stationary,supermarket,Anayamkunnu,Kerala
7325149567,9.9037729,76.5161532,Celebrino Holidays & Events,travel_agency,Anchelpetty,Kerala
7325122878,9.895249,76.5150087,FIRST LETTER,clothes,Anchelpetty,Kerala
7325160131,9.9039818,76.5166945,Immatty Bakers,bakery,Anchelpetty,Kerala
7325156999,9.9039885,76.5157991,Sana Medicals,medical_supply,Anchelpetty,Kerala
7325150924,9.9039196,76.5172651,Thadathil Bakery തടത്തിൽ ബേക്കറി,bakery,Anchelpetty,Kerala
7325150083,9.9031286,76.518059,Thekkumparambil Agencies,hardware,Anchelpetty,Kerala
7325149823,9.8972413,76.5153065,Trust Auto Palace,car,Anchelpetty,Kerala
7159648944,11.44584,78.1580983,Chennai Bakery,bakery,Andagalore Gate,Tamil Nadu
7159665304,11.44584,78.1580983,Chennai bakery,bakery,Andagalore Gate,Tamil Nadu
4331208689,11.4455398,78.1579259,Kovai sweets and Bakery,bakery,Andagalore Gate,Tamil Nadu
4701649266,10.8747128,78.6036225,Sri Mahalakshmi Iyengar Bakery,bakery,Andanallur,Tamil Nadu
4281866390,10.1717537,76.2121049,"Akshaya Centre, Andippillikkavu",copyshop,Andipillikavu,Kerala
4708280012,10.176298,76.2117673,Devi Tyre,tyres,Andipillikavu,Kerala
4281812590,10.1735698,76.2121354,Internet cafe,copyshop,Andipillikavu,Kerala
4354389516,10.1784723,76.2106123,Manapuram Finance,money_lender,Andipillikavu,Kerala
4351786489,10.1780118,76.2110089,Mizhi Studio,photo,Andipillikavu,Kerala
4802320596,10.1786439,76.2084616,Rince Stores,stationery,Andipillikavu,Kerala
4520193489,10.1778454,76.21084,Rose Buds,clothes,Andipillikavu,Kerala
4520237389,10.1785217,76.2103759,Shiju's Store,convenience,Andipillikavu,Kerala
4793420615,10.1722884,76.2122134,Sree Krishna Bakery,bakery,Andipillikavu,Kerala
4508737663,10.1784655,76.2106502,Sumi Supermarket,supermarket,Andipillikavu,Kerala
5996007645,10.1781732,76.2144838,Two Wheeler Workshop,motorcycle_repair,Andipillikavu,Kerala
3774735532,10.1657404,76.2131095,indane,gas,Andipillikavu,Kerala
4793421299,10.1721327,76.2121404,vijaya Bakery,bakery,Andipillikavu,Kerala
6030391798,10.1717968,76.2120124,അമ്മാസ്,bakery,Andipillikavu,Kerala
2904730012,10.171853,76.2124425,ഇറച്ചിക്കട,butcher,Andipillikavu,Kerala
2246165323,9.7365117,76.6225181,Appachans Hardware Stores Andoor,hardware,Andoor,Kerala
2246165324,9.7378889,76.6217165,Gopi's Hair Saloon,hairdresser,Andoor,Kerala
1813644869,15.351608,76.4916012,Craft Shop,variety_store,Anegundi,Karnataka
4062107198,10.9756553,76.2122499,Bullet,car,Angadipuram,Kerala
4061317990,10.9757744,76.2118152,Carspot,car_parts,Angadipuram,Kerala
4061317892,10.9757349,76.2119305,Pioneer,car_parts,Angadipuram,Kerala
4062093967,10.975376,76.213223,Tata,car_repair,Angadipuram,Kerala
3826865807,10.9784302,76.1959583,Toddy,beverages,Angadipuram,Kerala
4345563202,16.2401265,80.6223549,Maruthi Suzuki,car,Angalakuduru,Andhra Pradesh
4290482509,10.5245546,76.9925818,Chellappa & Sons,hardware,Angalakurichi,Tamil Nadu
6143202931,13.0720294,74.8124611,Kenchanakere Fish Store,fishmonger,Angaragudde,Karnataka
3876855989,11.7595514,75.5785834,MRA Bakery,bakery,Aniyaram,Kerala
3876855990,11.7588595,75.5774281,Margin Free Super Market,supermarket,Aniyaram,Kerala
5510565025,15.5839775,73.748805,Barber,hairdresser,Anjuna,Goa
4609694189,15.5843258,73.7471301,Family Mart,supermarket,Anjuna,Goa
5907626154,10.2760821,76.3260638,Indoor Stadium,yes,Annanad,Kerala
2528807759,10.2705719,76.3211433,benny mill,supermarket,Annanad,Kerala
2528106848,10.2698326,76.321042,benny shop,supermarket,Annanad,Kerala
2528105387,10.2762103,76.3266653,biju shop,supermarket,Annanad,Kerala
2528796375,10.270251,76.3211044,genny workshop,supermarket,Annanad,Kerala
2528091220,10.2747563,76.3212373,ittop shop,supermarket,Annanad,Kerala
2528833944,10.2749285,76.3212591,sreejith shop,supermarket,Annanad,Kerala
2528833292,10.2683751,76.321025,tile factory,supermarket,Annanad,Kerala
2528833945,10.2749453,76.3211669,vijayan barbar shop,supermarket,Annanad,Kerala
6315605879,17.3564914,82.5365291,AutoZone,car_parts,Annavaram Surav,Andhra Pradesh
5040215939,17.3538302,82.5413039,KANIGIRI COMPLEX,mall,Annavaram Surav,Andhra Pradesh
1464792390,13.2000969,77.7102741,Relay,newsagent,Anneshvara,Karnataka
7299525458,10.2727714,76.2080309,Saras Super Market,supermarket,Annikkara,Kerala
6959345613,10.2725848,76.2080684,arafath buliding complex,mall,Annikkara,Kerala
7299525462,10.2728148,76.2075178,പച്ചക്കറികള്‍,general,Annikkara,Kerala
7299545800,10.2730071,76.2078703,ബാര്‍ബര്‍ ഷോപ്പ്,hairdresser,Annikkara,Kerala
7299525457,10.272756,76.2077793,ബേക്കറി,bakery,Annikkara,Kerala
7299525459,10.2726218,76.2077537,ബേക്കറി,bakery,Annikkara,Kerala
7104055141,10.4581386,76.1217106,Abhiman Jewellers,jewelry,Anthikkad,Kerala
7104055143,10.4587875,76.1211044,Anand Plaza,mall,Anthikkad,Kerala
7104055135,10.4570097,76.1221612,Cyber GreeN internet cafe,yes,Anthikkad,Kerala
7104055142,10.4583708,76.1214773,Deepa Bakery,bakery,Anthikkad,Kerala
7103890854,10.4545853,76.1233907,Delma Bakery,bakery,Anthikkad,Kerala
7103941673,10.4580425,76.12144,HEAD Mens beauty parlour,beauty,Anthikkad,Kerala
7071598720,10.4578659,76.1217347,Neethi Medicals,medical_supply,Anthikkad,Kerala
7104098826,10.4576906,76.1184602,PRO PUBG,video_games,Anthikkad,Kerala
7103941643,10.4624939,76.1195773,RCM Public Store,variety_store,Anthikkad,Kerala
7104055140,10.4576639,76.1217133,SK Book Stall,books,Anthikkad,Kerala
7104055144,10.4591647,76.1212117,Safa Fish Market,fishing,Anthikkad,Kerala
7104055150,10.4634629,76.1188418,Sairam Bakery,bakery,Anthikkad,Kerala
7071598717,10.4582417,76.1211352,Shahul Shopping Mall,mall,Anthikkad,Kerala
7103890855,10.4541389,76.1235917,Sidhartha Mini Mart,stationery,Anthikkad,Kerala
7104055145,10.4593889,76.1206511,Star Lottery Agency,lottery,Anthikkad,Kerala
7071598719,10.4584738,76.1214463,Suhruth Bakery,bakery,Anthikkad,Kerala
7104055148,10.4630376,76.1192075,Ummar's Vegetable Stores,greengrocer,Anthikkad,Kerala
7103941599,10.4638688,76.1110468,ammu stores,yes,Anthikkad,Kerala
7071601189,10.4493523,76.1138636,chillvalleys food products,frozen_food,Anthikkad,Kerala
7104201066,10.4626121,76.1181486,cycle repair shop,yes,Anthikkad,Kerala
7104055149,10.4631376,76.1191791,fish market,fishing,Anthikkad,Kerala
7071601201,10.4664235,76.117233,ladies fashion hub,clothes,Anthikkad,Kerala
7103941601,10.4660026,76.1173017,moms magic,yes,Anthikkad,Kerala
7104055147,10.4629444,76.1191437,palliyamakal store,yes,Anthikkad,Kerala
7103941662,10.4578005,76.1215359,s&k book stall,yes,Anthikkad,Kerala
6840090754,16.7802235,79.3253207,Manikanta Motors,motorcycle,Anumula,Telangana
6847212755,16.7851039,79.330615,Sri Krishna Motors,motorcycle,Anumula,Telangana
2662961903,12.2510965,79.4165402,Browsing World,computer,Appampattu,Tamil Nadu
2661423300,12.2525249,79.4154633,Madha Furniture Store,furniture,Appampattu,Tamil Nadu
2578988771,12.2528204,79.4166711,Raja Navalties,stationery,Appampattu,Tamil Nadu
2660691828,12.2498581,79.4138325,Siva Beasuty Shop,beauty,Appampattu,Tamil Nadu
2662963082,12.2516151,79.4169025,Sri Enterprises,computer,Appampattu,Tamil Nadu
2578988767,12.2530681,79.4141965,Surya Super Market,supermarket,Appampattu,Tamil Nadu
6847212720,18.6134124,79.3739459,Lifestyle Fashions,clothes,Appannapet,Telangana
6850830377,18.6172444,79.3720788,Shameem Kiranam & General Stores,department_store,Appannapet,Telangana
6853049445,18.6109934,79.3793482,Sridhar Mobiles,mobile_phone,Appannapet,Telangana
6840090535,18.6131889,79.3741048,Thirumala Dresses,clothes,Appannapet,Telangana
2933052107,16.764069,77.2705466,Arakera shop,yes,Arakera,Karnataka
2933052106,16.7642253,77.2706896,Granny's Shop,yes,Arakera,Karnataka
4748988043,13.0844512,79.6679812,Anitha Bakery,bakery,Arakkonam,Tamil Nadu
4749162027,13.08615,79.6607185,Beri Men's Wear,clothes,Arakkonam,Tamil Nadu
4748988037,13.0905445,79.6601169,Golden Store,yes,Arakkonam,Tamil Nadu
4748954223,13.0923343,79.660731,HI-TECH MOBILES,mobile_phone,Arakkonam,Tamil Nadu
4749162024,13.0864621,79.6630731,Naidu Bakery,bakery,Arakkonam,Tamil Nadu
4748954225,13.0926869,79.6600414,VRG Super Market,supermarket,Arakkonam,Tamil Nadu
4748954221,13.0954225,79.6585069,ZIYA MOTORS,motorcycle,Arakkonam,Tamil Nadu
7327248963,9.8864603,76.4282946,Anna's Attire Designing Stitching,tailor,Arakkunnam,Kerala
7319073760,9.8854174,76.4238242,alpha tools,tool_hire,Arakkunnam,Kerala
7319073759,9.8851946,76.4250729,joys sweet palace,bakery,Arakkunnam,Kerala
7327248461,9.8862825,76.4287051,kandamparambil bakery,bakery,Arakkunnam,Kerala
7319197081,9.8863496,76.4299403,vijay medical shop,medical_supply,Arakkunnam,Kerala
3562878501,9.9372181,76.6207724,Suryan chettan's shop,yes,Arakuzha,Kerala
4406358689,12.5658399,77.4424316,Ganesh Store,bookmaker,Aranakuppe,Karnataka
3846727938,26.116096,87.47226,KIOSK,yes,Araria,Bihar
6810642842,13.3221577,76.2507548,AMPC,supermarket,Arasikere,Karnataka
6810619434,13.3166012,76.2539873,Baba,supermarket,Arasikere,Karnataka
6810629922,13.3221003,76.2514843,Baskara,supermarket,Arasikere,Karnataka
6810632414,13.3221943,76.2517525,Chamundeshwarioil,supermarket,Arasikere,Karnataka
6810631255,13.3249033,76.2480874,Dasa Grocery,supermarket,Arasikere,Karnataka
6810625092,13.3221116,76.2516176,Datta,supermarket,Arasikere,Karnataka
6810637094,13.3223978,76.2512376,Oil Mill,supermarket,Arasikere,Karnataka
4744466348,13.3117409,76.2504615,Pragathi Provision Store,convenience,Arasikere,Karnataka
6810599863,13.3222301,76.2501922,Shankar Store,supermarket,Arasikere,Karnataka
6810630485,13.3164551,76.2541299,Sheter Angadi,supermarket,Arasikere,Karnataka
6810619327,13.3164362,76.2541038,Uma Fancy,supermarket,Arasikere,Karnataka
7167682380,11.8316691,79.4262034,Kailash Bhavan,coffee,Arasur,Tamil Nadu
7321574083,12.7109698,77.2692862,Prakash Chandra Commercial Complex,supermarket,Archakarahalli,Karnataka
971639419,32.0626828,77.1327867,LPS,beverages,Archhandi,Himachal Prades
3755386526,27.1793806,77.7358171,ANANJ MANDI,supermarket,Ardaya,Uttar Pradesh
7200645987,9.6061082,76.616205,Thekkiyil stores,yes,Areeparambu,Kerala
7076719273,10.509512,76.1708192,battery centre,electronics,Arimbur,Kerala
7076719282,10.5093995,76.1682356,carmel offset printers,yes,Arimbur,Kerala
7076719284,10.5074649,76.1672436,chowallur welders,electronics,Arimbur,Kerala
7076750002,10.495615,76.1656454,citron electrical works manakodi,electronics,Arimbur,Kerala
7076750000,10.4971631,76.1651305,ck store,yes,Arimbur,Kerala
7076719279,10.5088578,76.1686886,dhanya stores,stationery,Arimbur,Kerala
7076750003,10.495673,76.1647576,fresh chips food products,bakery,Arimbur,Kerala
7076719277,10.5090005,76.1691558,fresh vegitables,greengrocer,Arimbur,Kerala
7076749992,10.5055349,76.16631,gforce,car_repair,Arimbur,Kerala
7076719274,10.5093867,76.1697646,j k cycles,bicycle,Arimbur,Kerala
7076749990,10.5059984,76.1667321,juice and fruit shop,bakery,Arimbur,Kerala
7076750023,10.4795786,76.1643711,mariya plastics,yes,Arimbur,Kerala
7076719278,10.5093311,76.168993,niranjana fashion hub,fabric,Arimbur,Kerala
7076719275,10.5091501,76.1695416,signtree graphics,yes,Arimbur,Kerala
7076719280,10.5089935,76.1686603,syrandhri designer boutique,clothes,Arimbur,Kerala
7076749996,10.5026117,76.1659324,tulips bridal studio,clothes,Arimbur,Kerala
7076749991,10.5055591,76.1666828,vanitha maxi centre,clothes,Arimbur,Kerala
4797659564,11.6672082,78.1429075,Adyar Ananda Bhavan,confectionery,Arisipalayam,Tamil Nadu
4305431891,11.6630619,78.1477773,Chamundi complex,convenience,Arisipalayam,Tamil Nadu
5590275438,11.6681504,78.1326476,Computer Mart,computer,Arisipalayam,Tamil Nadu
4306710996,11.6762138,78.1519352,Dubai Bakery,bakery,Arisipalayam,Tamil Nadu
5205523145,11.6759693,78.1289297,"Hosanna Tours & Travels Pvt.Ltd.,",travel_agency,Arisipalayam,Tamil Nadu
5590256645,11.6676288,78.1360966,Infolink Systems,computer,Arisipalayam,Tamil Nadu
5590279090,11.6675016,78.1370905,JP Computers,computer,Arisipalayam,Tamil Nadu
4305484391,11.6768087,78.1434309,Jaisurya's,department_store,Arisipalayam,Tamil Nadu
4306485999,11.6711606,78.1391984,Joyalukkas,jewelry,Arisipalayam,Tamil Nadu
4306812989,11.6699413,78.1404855,KPN Travels,travel_agency,Arisipalayam,Tamil Nadu
4306486000,11.6634648,78.1474462,Mobile Express,mobile_phone,Arisipalayam,Tamil Nadu
6744603024,11.6680443,78.1335218,Poorvika mobile,mobile_phone,Arisipalayam,Tamil Nadu
6743560277,11.6760455,78.1363525,Puma,clothes,Arisipalayam,Tamil Nadu
4305472890,11.6780595,78.1324701,Ramani Hyundai,car,Arisipalayam,Tamil Nadu
4299395093,11.6752079,78.1329478,Reliance Supermarket,supermarket,Arisipalayam,Tamil Nadu
4426163192,11.6750686,78.1323039,Reliance Trends,clothes,Arisipalayam,Tamil Nadu
6744600939,11.6672938,78.1363745,Sangeetha,mobile_phone,Arisipalayam,Tamil Nadu
4299395092,11.6697259,78.140776,Saravana Bakery,bakery,Arisipalayam,Tamil Nadu
6744566247,11.6680622,78.133288,Sony Centre,electronics,Arisipalayam,Tamil Nadu
6853050174,18.788366,78.291819,Armoor Multiplex & Mall,mall,Armoor,Telangana
6853050170,18.786491,78.293122,Sangeetha Mobiles,mobile_phone,Armoor,Telangana
4344865334,29.9577173,76.1996955,Raja Kryana Store,yes,Arnetu,Haryana
4298753815,15.571674,73.762764,Baba Cafe French Bakery & Pizzeria,bakery,Arpora,Goa
4623478689,15.5697768,73.7575004,Buddha arts,gift,Arpora,Goa
5083485022,15.5686639,73.7586796,Night market Baga,supermarket,Arpora,Goa
4692563015,15.5719552,73.765047,Ojas,hairdresser,Arpora,Goa
4299626095,15.552516,73.763824,SK Electronics,electronics,Arpora,Goa
4692563527,15.5672573,73.7648574,Saba General Store,convenience,Arpora,Goa
5071520227,15.5521203,73.7639167,Tripraja.com - travel and guide,travel_agency,Arpora,Goa
535919709,15.5615583,73.7689559,Viegas,supermarket,Arpora,Goa
971639201,31.9914796,76.795215,Sharma Auto Center Bullet,car_repair,Arthi,Himachal Prades
5806063555,34.0922084,75.2632287,Grossery,computer,Aru,Jammu and Kashm
7118863117,8.416742,77.1078925,Bethel Cake World,bakery,Aruvipuram,Kerala
7118947264,8.4214687,77.1080151,Devi Flower Merchant,yes,Aruvipuram,Kerala
7130305233,8.4043578,77.0840333,Fathima Footwear,shoes,Aruvipuram,Kerala
7118829204,8.4178768,77.1086622,Lekshmi Medicals,medical_supply,Aruvipuram,Kerala
7118863115,8.4178969,77.1088687,Manu Bakery,bakery,Aruvipuram,Kerala
7118947261,8.4210604,77.1079468,Marayamuttom Cooperative Textiles,clothes,Aruvipuram,Kerala
7130264252,8.4052101,77.0831256,Naseeb Essence Mart,yes,Aruvipuram,Kerala
7118829206,8.4168671,77.1081202,Neethi Bakery,bakery,Aruvipuram,Kerala
7118829205,8.4168342,77.1080833,Neethi Medicals,medical_supply,Aruvipuram,Kerala
7118947262,8.4213628,77.1077287,Neethi Store,yes,Aruvipuram,Kerala
7118863111,8.4177338,77.1084772,P K Textiles,clothes,Aruvipuram,Kerala
7118829208,8.4168251,77.1080463,Rainbow Textiles,clothes,Aruvipuram,Kerala
7118829215,8.4161346,77.1079718,Salsabeen Shop;Marayamuttom Post Office,supermarket,Aruvipuram,Kerala
7118863116,8.4175086,77.1085732,Sheeja Medicals,medical_supply,Aruvipuram,Kerala
7130266973,8.4048012,77.0832073,Shivani Interior,yes,Aruvipuram,Kerala
7118863110,8.4169093,77.1078954,Suja Studio,photo_studio,Aruvipuram,Kerala
7118829236,8.4166331,77.1081742,Supplyco,supermarket,Aruvipuram,Kerala
7118829209,8.4165655,77.1076402,Vijaya Medicals,medical_supply,Aruvipuram,Kerala
6938713308,9.6927391,76.7740024,Bismi Tyre,tyres,Aruvithura,Kerala
1446279946,9.6866952,76.777936,Chinnu Shopping Centre,gift,Aruvithura,Kerala
1446283975,9.6864809,76.7777377,Indian Bakes,bakery,Aruvithura,Kerala
1446279948,9.6865907,76.7779509,Margin Free Market,convenience,Aruvithura,Kerala
3104119991,9.6854759,76.7818575,Parayil Stores,kitchen,Aruvithura,Kerala
1446283980,9.6867983,76.7776195,Star Home Appliances,hifi,Aruvithura,Kerala
4339736902,19.9475767,79.2960573,GOL BAZAAR,supermarket,Arwat,Maharashtra
4376878401,19.9457486,79.2956604,Samarth Book Depot,books,Arwat,Maharashtra
7133769888,9.5262661,76.3273614,GRS Mechatronics,electronics,Aryad,Kerala
4652890490,9.5223003,76.3565705,Nenci Store,greengrocer,Aryad,Kerala
3643307950,8.9664923,77.1452903,Palaruvi Ticket Counter,ticket,Aryankavu,Kerala
4612725232,23.703353,86.9480189,Centrum Mall,mall,Asansol,West Bengal
4612497928,23.6848857,86.9416831,Galaxy mall,mall,Asansol,West Bengal
3270010403,15.6406611,73.7225951,Anil Supermarket,supermarket,Ashvem,Goa
6117609886,15.6380025,73.7206261,Banana Surf School,sports,Ashvem,Goa
4715682890,15.6362971,73.7267222,Bike mechanic,car_repair,Ashvem,Goa
4423284889,15.6387567,73.7245525,Chocolate Leather,clothes,Ashvem,Goa
4625666989,15.6410483,73.7222478,Cottage,supermarket,Ashvem,Goa
4625691089,15.6409431,73.7223162,Kush Leather,furniture,Ashvem,Goa
6095573185,15.6399687,73.7233455,Tattoo shop Lucky tattoo,tattoo,Ashvem,Goa
6847914882,17.249849,81.131725,Hair Styles,beauty,Ashwaraopet,Telangana
6837577356,17.25002,81.132197,Venkata Durga Theater,tailor,Ashwaraopet,Telangana
1144142412,30.1552451,76.2024326,Samana,supermarket,Asmanpur,Punjab
6109158788,19.0885224,82.0117257,Binaka Mall,supermarket,Asna,Chhattisgarh
